{
"type": "FeatureCollection",
"crs": { "type": "name", "properties": { "name": "urn:ogc:def:crs:OGC:1.3:CRS84" } },
"features": [
{ "type": "Feature", "properties": { "Name": "Cheaha State Park", "State": "Alabama", "Type": "NP" }, "geometry": { "type": "Point", "coordinates": [ -85.8133195, 33.4700829 ] } },
{ "type": "Feature", "properties": { "Name": "Horseshoe Bend National Military Park", "State": "Alabama", "Type": "NP" }, "geometry": { "type": "Point", "coordinates": [ -85.7334323, 32.9760592 ] } },
{ "type": "Feature", "properties": { "Name": "Blue Springs State Park", "State": "Alabama", "Type": "NP" }, "geometry": { "type": "Point", "coordinates": [ -85.5076831, 31.6639626 ] } },
{ "type": "Feature", "properties": { "Name": "DeSoto State Park", "State": "Alabama", "Type": "NP" }, "geometry": { "type": "Point", "coordinates": [ -85.6272192, 34.4957262 ] } },
{ "type": "Feature", "properties": { "Name": "Paul M. Grist State Park", "State": "Alabama", "Type": "NP" }, "geometry": { "type": "Point", "coordinates": [ -86.9904139, 32.6015571 ] } },
{ "type": "Feature", "properties": { "Name": "Historic Blakeley State Park", "State": "Alabama", "Type": "NP" }, "geometry": { "type": "Point", "coordinates": [ -87.8995855, 30.7325847 ] } },
{ "type": "Feature", "properties": { "Name": "Chickasaw State Park", "State": "Alabama", "Type": "NP" }, "geometry": { "type": "Point", "coordinates": [ -87.7797773, 32.3618815 ] } },
{ "type": "Feature", "properties": { "Name": "Gulf State Park", "State": "Alabama", "Type": "NP" }, "geometry": { "type": "Point", "coordinates": [ -87.6342115, 30.2684061 ] } },
{ "type": "Feature", "properties": { "Name": "Rickwood Caverns State Park", "State": "Alabama", "Type": "NP" }, "geometry": { "type": "Point", "coordinates": [ -86.862025, 33.874921 ] } },
{ "type": "Feature", "properties": { "Name": "Monte Sano State Park", "State": "Alabama", "Type": "NP" }, "geometry": { "type": "Point", "coordinates": [ -86.5118155, 34.7399425 ] } },
{ "type": "Feature", "properties": { "Name": "Zip Lines at Wind Creek State Park", "State": "Alabama", "Type": "NP" }, "geometry": { "type": "Point", "coordinates": [ -85.9333801, 32.861974 ] } },
{ "type": "Feature", "properties": { "Name": "Bladon Springs County Park", "State": "Alabama", "Type": "NP" }, "geometry": { "type": "Point", "coordinates": [ -88.1858892, 31.7498908 ] } },
{ "type": "Feature", "properties": { "Name": "Frank Jackson State Park", "State": "Alabama", "Type": "NP" }, "geometry": { "type": "Point", "coordinates": [ -86.2745679, 31.2967307 ] } },
{ "type": "Feature", "properties": { "Name": "Cathedral Caverns State Park", "State": "Alabama", "Type": "NP" }, "geometry": { "type": "Point", "coordinates": [ -86.2215661, 34.5736709 ] } },
{ "type": "Feature", "properties": { "Name": "Oak Mountain State Park", "State": "Alabama", "Type": "NP" }, "geometry": { "type": "Point", "coordinates": [ -86.7593249, 33.3247302 ] } },
{ "type": "Feature", "properties": { "Name": "Joe Wheeler State Park", "State": "Alabama", "Type": "NP" }, "geometry": { "type": "Point", "coordinates": [ -87.3455753, 34.8172997 ] } },
{ "type": "Feature", "properties": { "Name": "Lake Guntersville State Park", "State": "Alabama", "Type": "NP" }, "geometry": { "type": "Point", "coordinates": [ -86.200600799999989, 34.3887709 ] } },
{ "type": "Feature", "properties": { "Name": "Bankhead National Forest", "State": "Alabama", "Type": "NP" }, "geometry": { "type": "Point", "coordinates": [ -87.3508357, 34.2282018 ] } },
{ "type": "Feature", "properties": { "Name": "Lake Lurleen State Park", "State": "Alabama", "Type": "NP" }, "geometry": { "type": "Point", "coordinates": [ -87.676688, 33.2973214 ] } },
{ "type": "Feature", "properties": { "Name": "Chewacla State Park", "State": "Alabama", "Type": "NP" }, "geometry": { "type": "Point", "coordinates": [ -85.4730973, 32.5522726 ] } },
{ "type": "Feature", "properties": { "Name": "Kenai Fjords National Park", "State": "Alaska", "Type": "NP" }, "geometry": { "type": "Point", "coordinates": [ -150.187880299999989, 59.848674499999987 ] } },
{ "type": "Feature", "properties": { "Name": "Gates of the Arctic National Park and Preserve", "State": "Alaska", "Type": "NP" }, "geometry": { "type": "Point", "coordinates": [ -153.3241121, 67.6854972 ] } },
{ "type": "Feature", "properties": { "Name": "Katmai National Park and Preserve", "State": "Alaska", "Type": "NP" }, "geometry": { "type": "Point", "coordinates": [ -154.96977480000001, 58.5861984 ] } },
{ "type": "Feature", "properties": { "Name": "Wrangell-St. Elias National Park & Preserve", "State": "Alaska", "Type": "NP" }, "geometry": { "type": "Point", "coordinates": [ -142.9856804, 61.7104448 ] } },
{ "type": "Feature", "properties": { "Name": "Glacier Bay National Park and Preserve", "State": "Alaska", "Type": "NP" }, "geometry": { "type": "Point", "coordinates": [ -136.9002147, 58.6658073 ] } },
{ "type": "Feature", "properties": { "Name": "Denali State Park", "State": "Alaska", "Type": "NP" }, "geometry": { "type": "Point", "coordinates": [ -150.04, 62.7513889 ] } },
{ "type": "Feature", "properties": { "Name": "Denali National Park and Preserve", "State": "Alaska", "Type": "NP" }, "geometry": { "type": "Point", "coordinates": [ -151.1926057, 63.1148002 ] } },
{ "type": "Feature", "properties": { "Name": "Lake Clark National Park and Preserve", "State": "Alaska", "Type": "NP" }, "geometry": { "type": "Point", "coordinates": [ -153.5301092, 60.594101 ] } },
{ "type": "Feature", "properties": { "Name": "Aniakchak National Monument & Preserve", "State": "Alaska", "Type": "NP" }, "geometry": { "type": "Point", "coordinates": [ -157.8146777, 56.870727 ] } },
{ "type": "Feature", "properties": { "Name": "Kobuk Valley National Park", "State": "Alaska", "Type": "NP" }, "geometry": { "type": "Point", "coordinates": [ -159.2136759, 67.3575107 ] } },
{ "type": "Feature", "properties": { "Name": "Chugach State Park", "State": "Alaska", "Type": "NP" }, "geometry": { "type": "Point", "coordinates": [ -149.2304785, 61.1934395 ] } },
{ "type": "Feature", "properties": { "Name": "Alagnak Wild River", "State": "Alaska", "Type": "NP" }, "geometry": { "type": "Point", "coordinates": [ -156.1181312, 59.0134287 ] } },
{ "type": "Feature", "properties": { "Name": "Fort Abercrombie State Historic Park", "State": "Alaska", "Type": "NP" }, "geometry": { "type": "Point", "coordinates": [ -152.3572397, 57.8340488 ] } },
{ "type": "Feature", "properties": { "Name": "National Park Service Alaska Regional Office", "State": "Alaska", "Type": "NP" }, "geometry": { "type": "Point", "coordinates": [ -149.886202700000013, 61.2172346 ] } },
{ "type": "Feature", "properties": { "Name": "Kachemak Bay State Park", "State": "Alaska", "Type": "NP" }, "geometry": { "type": "Point", "coordinates": [ -151.102620300000012, 59.4722921 ] } },
{ "type": "Feature", "properties": { "Name": "Chugach State Park", "State": "Alaska", "Type": "NP" }, "geometry": { "type": "Point", "coordinates": [ -149.587109, 61.2997657 ] } },
{ "type": "Feature", "properties": { "Name": "Alatna National Wild & Scenic River", "State": "Alaska", "Type": "NP" }, "geometry": { "type": "Point", "coordinates": [ -154.1544304, 67.5554049 ] } },
{ "type": "Feature", "properties": { "Name": "Shoup Bay State Marine Park", "State": "Alaska", "Type": "NP" }, "geometry": { "type": "Point", "coordinates": [ -146.6071926, 61.130793100000012 ] } },
{ "type": "Feature", "properties": { "Name": "Wood-Tikchik State Park", "State": "Alaska", "Type": "NP" }, "geometry": { "type": "Point", "coordinates": [ -158.719826399999988, 59.8547807 ] } },
{ "type": "Feature", "properties": { "Name": "Bering Land Bridge National Preserve", "State": "Alaska", "Type": "NP" }, "geometry": { "type": "Point", "coordinates": [ -164.4377877, 65.9258669 ] } },
{ "type": "Feature", "properties": { "Name": "Saguaro National Park", "State": "Arizona", "Type": "NP" }, "geometry": { "type": "Point", "coordinates": [ -111.166615, 32.2967359 ] } },
{ "type": "Feature", "properties": { "Name": "Grand Canyon National Park", "State": "Arizona", "Type": "NP" }, "geometry": { "type": "Point", "coordinates": [ -112.3535253, 36.2678855 ] } },
{ "type": "Feature", "properties": { "Name": "Petrified Forest National Park", "State": "Arizona", "Type": "NP" }, "geometry": { "type": "Point", "coordinates": [ -109.7889229, 35.0036935 ] } },
{ "type": "Feature", "properties": { "Name": "Lost Dutchman State Park", "State": "Arizona", "Type": "NP" }, "geometry": { "type": "Point", "coordinates": [ -111.4806317, 33.4630458 ] } },
{ "type": "Feature", "properties": { "Name": "Oracle State Park", "State": "Arizona", "Type": "NP" }, "geometry": { "type": "Point", "coordinates": [ -110.7336284, 32.6092999 ] } },
{ "type": "Feature", "properties": { "Name": "Chiricahua National Monument", "State": "Arizona", "Type": "NP" }, "geometry": { "type": "Point", "coordinates": [ -109.3416105, 32.0121363 ] } },
{ "type": "Feature", "properties": { "Name": "Tonto Natural Bridge State Park", "State": "Arizona", "Type": "NP" }, "geometry": { "type": "Point", "coordinates": [ -111.4544372, 34.3228732 ] } },
{ "type": "Feature", "properties": { "Name": "Tonto National Forest", "State": "Arizona", "Type": "NP" }, "geometry": { "type": "Point", "coordinates": [ -111.2756382, 33.8718575 ] } },
{ "type": "Feature", "properties": { "Name": "Canyon de Chelly National Monument", "State": "Arizona", "Type": "NP" }, "geometry": { "type": "Point", "coordinates": [ -109.3197052, 36.1190734 ] } },
{ "type": "Feature", "properties": { "Name": "Picacho Peak State Park", "State": "Arizona", "Type": "NP" }, "geometry": { "type": "Point", "coordinates": [ -111.4014053, 32.6460228 ] } },
{ "type": "Feature", "properties": { "Name": "Saguaro National Park East Side", "State": "Arizona", "Type": "NP" }, "geometry": { "type": "Point", "coordinates": [ -110.6884055, 32.2063969 ] } },
{ "type": "Feature", "properties": { "Name": "Papago Park", "State": "Arizona", "Type": "NP" }, "geometry": { "type": "Point", "coordinates": [ -111.948693, 33.4536315 ] } },
{ "type": "Feature", "properties": { "Name": "Red Rock State Park", "State": "Arizona", "Type": "NP" }, "geometry": { "type": "Point", "coordinates": [ -111.8305634, 34.8129229 ] } },
{ "type": "Feature", "properties": { "Name": "Slide Rock State Park", "State": "Arizona", "Type": "NP" }, "geometry": { "type": "Point", "coordinates": [ -111.7529307, 34.9435811 ] } },
{ "type": "Feature", "properties": { "Name": "Casa Grande Ruins National Monument", "State": "Arizona", "Type": "NP" }, "geometry": { "type": "Point", "coordinates": [ -111.5325468, 32.9974176 ] } },
{ "type": "Feature", "properties": { "Name": "Dead Horse Ranch State Park", "State": "Arizona", "Type": "NP" }, "geometry": { "type": "Point", "coordinates": [ -112.0215606, 34.7537237 ] } },
{ "type": "Feature", "properties": { "Name": "Jerome State Historic Park", "State": "Arizona", "Type": "NP" }, "geometry": { "type": "Point", "coordinates": [ -112.1111597, 34.753571099999988 ] } },
{ "type": "Feature", "properties": { "Name": "San Rafael State Natural Area", "State": "Arizona", "Type": "NP" }, "geometry": { "type": "Point", "coordinates": [ -110.6101929, 31.418398 ] } },
{ "type": "Feature", "properties": { "Name": "Homolovi State Park", "State": "Arizona", "Type": "NP" }, "geometry": { "type": "Point", "coordinates": [ -110.6527338, 35.0464771 ] } },
{ "type": "Feature", "properties": { "Name": "Kartchner Caverns State Park", "State": "Arizona", "Type": "NP" }, "geometry": { "type": "Point", "coordinates": [ -110.3488848, 31.836596 ] } },
{ "type": "Feature", "properties": { "Name": "Hot Springs National Park", "State": "Arkansas", "Type": "NP" }, "geometry": { "type": "Point", "coordinates": [ -93.0690934, 34.5269095 ] } },
{ "type": "Feature", "properties": { "Name": "Petit Jean State Park", "State": "Arkansas", "Type": "NP" }, "geometry": { "type": "Point", "coordinates": [ -92.9234759, 35.1242439 ] } },
{ "type": "Feature", "properties": { "Name": "Pinnacle Mountain State Park", "State": "Arkansas", "Type": "NP" }, "geometry": { "type": "Point", "coordinates": [ -92.4727788, 34.840144 ] } },
{ "type": "Feature", "properties": { "Name": "Lake Catherine State Park", "State": "Arkansas", "Type": "NP" }, "geometry": { "type": "Point", "coordinates": [ -92.9226486, 34.4287378 ] } },
{ "type": "Feature", "properties": { "Name": "Mount Magazine State Park", "State": "Arkansas", "Type": "NP" }, "geometry": { "type": "Point", "coordinates": [ -93.6260549, 35.1686949 ] } },
{ "type": "Feature", "properties": { "Name": "Lake Ouachita State Park", "State": "Arkansas", "Type": "NP" }, "geometry": { "type": "Point", "coordinates": [ -93.1772925, 34.618696 ] } },
{ "type": "Feature", "properties": { "Name": "Queen Wilhelmina State Park", "State": "Arkansas", "Type": "NP" }, "geometry": { "type": "Point", "coordinates": [ -94.3715585, 34.6858036 ] } },
{ "type": "Feature", "properties": { "Name": "Lake Fort Smith State Park", "State": "Arkansas", "Type": "NP" }, "geometry": { "type": "Point", "coordinates": [ -94.1188313, 35.6959506 ] } },
{ "type": "Feature", "properties": { "Name": "Moro Bay State Park", "State": "Arkansas", "Type": "NP" }, "geometry": { "type": "Point", "coordinates": [ -92.3496204, 33.3007433 ] } },
{ "type": "Feature", "properties": { "Name": "Mississippi River State Park", "State": "Arkansas", "Type": "NP" }, "geometry": { "type": "Point", "coordinates": [ -90.7216109, 34.7556677 ] } },
{ "type": "Feature", "properties": { "Name": "Withrow Springs State Park", "State": "Arkansas", "Type": "NP" }, "geometry": { "type": "Point", "coordinates": [ -93.7329671, 36.1552919 ] } },
{ "type": "Feature", "properties": { "Name": "Poison Springs Battleground State Park", "State": "Arkansas", "Type": "NP" }, "geometry": { "type": "Point", "coordinates": [ -93.004197100000013, 33.6387678 ] } },
{ "type": "Feature", "properties": { "Name": "Parkin Archeological State Park", "State": "Arkansas", "Type": "NP" }, "geometry": { "type": "Point", "coordinates": [ -90.5546278, 35.2769426 ] } },
{ "type": "Feature", "properties": { "Name": "White Oak Lake State Park", "State": "Arkansas", "Type": "NP" }, "geometry": { "type": "Point", "coordinates": [ -93.1146525, 33.6897761 ] } },
{ "type": "Feature", "properties": { "Name": "Crater of Diamonds State Park", "State": "Arkansas", "Type": "NP" }, "geometry": { "type": "Point", "coordinates": [ -93.6729312, 34.0325478 ] } },
{ "type": "Feature", "properties": { "Name": "Mount Nebo State Park", "State": "Arkansas", "Type": "NP" }, "geometry": { "type": "Point", "coordinates": [ -93.2527448, 35.2185729 ] } },
{ "type": "Feature", "properties": { "Name": "Daisy State Park", "State": "Arkansas", "Type": "NP" }, "geometry": { "type": "Point", "coordinates": [ -93.740456, 34.2336662 ] } },
{ "type": "Feature", "properties": { "Name": "Pea Ridge National Military Park", "State": "Arkansas", "Type": "NP" }, "geometry": { "type": "Point", "coordinates": [ -94.026610100000013, 36.4433394 ] } },
{ "type": "Feature", "properties": { "Name": "Lake Charles State Park", "State": "Arkansas", "Type": "NP" }, "geometry": { "type": "Point", "coordinates": [ -91.1528536, 36.0655624 ] } },
{ "type": "Feature", "properties": { "Name": "St. Francis National Forest", "State": "Arkansas", "Type": "NP" }, "geometry": { "type": "Point", "coordinates": [ -90.6678177, 34.6506465 ] } },
{ "type": "Feature", "properties": { "Name": "Pinnacles National Park", "State": "California", "Type": "NP" }, "geometry": { "type": "Point", "coordinates": [ -121.1824925, 36.4905655 ] } },
{ "type": "Feature", "properties": { "Name": "Joshua Tree National Park", "State": "California", "Type": "NP" }, "geometry": { "type": "Point", "coordinates": [ -115.9009923, 33.873415 ] } },
{ "type": "Feature", "properties": { "Name": "Redwood National and State Parks", "State": "California", "Type": "NP" }, "geometry": { "type": "Point", "coordinates": [ -124.041711, 41.4017156 ] } },
{ "type": "Feature", "properties": { "Name": "Kings Canyon National Park", "State": "California", "Type": "NP" }, "geometry": { "type": "Point", "coordinates": [ -118.5551477, 36.8878548 ] } },
{ "type": "Feature", "properties": { "Name": "Lassen Volcanic National Park", "State": "California", "Type": "NP" }, "geometry": { "type": "Point", "coordinates": [ -121.4206552, 40.49766 ] } },
{ "type": "Feature", "properties": { "Name": "The Forest of Nisene Marks State Park", "State": "California", "Type": "NP" }, "geometry": { "type": "Point", "coordinates": [ -121.905347, 37.0175202 ] } },
{ "type": "Feature", "properties": { "Name": "Yosemite National Park", "State": "California", "Type": "NP" }, "geometry": { "type": "Point", "coordinates": [ -119.5383294, 37.8651011 ] } },
{ "type": "Feature", "properties": { "Name": "Channel Islands National Park", "State": "California", "Type": "NP" }, "geometry": { "type": "Point", "coordinates": [ -119.9913964, 33.9681871 ] } },
{ "type": "Feature", "properties": { "Name": "Pacheco State Park", "State": "California", "Type": "NP" }, "geometry": { "type": "Point", "coordinates": [ -121.2116388, 37.0650751 ] } },
{ "type": "Feature", "properties": { "Name": "Sequoia National Park", "State": "California", "Type": "NP" }, "geometry": { "type": "Point", "coordinates": [ -118.5657516, 36.4863668 ] } },
{ "type": "Feature", "properties": { "Name": "Bodie State Historic Park", "State": "California", "Type": "NP" }, "geometry": { "type": "Point", "coordinates": [ -119.015125, 38.2133085 ] } },
{ "type": "Feature", "properties": { "Name": "Columbia State Historic Park", "State": "California", "Type": "NP" }, "geometry": { "type": "Point", "coordinates": [ -120.400165, 38.0357435 ] } },
{ "type": "Feature", "properties": { "Name": "Henry W. Coe State Park", "State": "California", "Type": "NP" }, "geometry": { "type": "Point", "coordinates": [ -121.4359759, 37.1914002 ] } },
{ "type": "Feature", "properties": { "Name": "The Giant Forest", "State": "California", "Type": "NP" }, "geometry": { "type": "Point", "coordinates": [ -118.7728896, 36.5642053 ] } },
{ "type": "Feature", "properties": { "Name": "Roaring River Falls, Kings Canyon National Park", "State": "California", "Type": "NP" }, "geometry": { "type": "Point", "coordinates": [ -118.6219614, 36.7818628 ] } },
{ "type": "Feature", "properties": { "Name": "Prairie Creek Redwoods State Park", "State": "California", "Type": "NP" }, "geometry": { "type": "Point", "coordinates": [ -124.0416172, 41.4016041 ] } },
{ "type": "Feature", "properties": { "Name": "Mountain Home State Forest", "State": "California", "Type": "NP" }, "geometry": { "type": "Point", "coordinates": [ -118.7128927, 36.2309537 ] } },
{ "type": "Feature", "properties": { "Name": "Sierra National Forest", "State": "California", "Type": "NP" }, "geometry": { "type": "Point", "coordinates": [ -119.2243664, 37.3426802 ] } },
{ "type": "Feature", "properties": { "Name": "Caswell Memorial State Park", "State": "California", "Type": "NP" }, "geometry": { "type": "Point", "coordinates": [ -121.1874767, 37.693819 ] } },
{ "type": "Feature", "properties": { "Name": "Point Sur State Historic Park", "State": "California", "Type": "NP" }, "geometry": { "type": "Point", "coordinates": [ -121.8932592, 36.3090626 ] } },
{ "type": "Feature", "properties": { "Name": "Rocky Mountain National Park", "State": "Colorado", "Type": "NP" }, "geometry": { "type": "Point", "coordinates": [ -105.6836389, 40.3427932 ] } },
{ "type": "Feature", "properties": { "Name": "Black Canyon of the Gunnison National Park", "State": "Colorado", "Type": "NP" }, "geometry": { "type": "Point", "coordinates": [ -107.7415961, 38.5753936 ] } },
{ "type": "Feature", "properties": { "Name": "Great Sand Dunes National Park and Preserve", "State": "Colorado", "Type": "NP" }, "geometry": { "type": "Point", "coordinates": [ -105.5930539, 37.7935263 ] } },
{ "type": "Feature", "properties": { "Name": "Mueller State Park", "State": "Colorado", "Type": "NP" }, "geometry": { "type": "Point", "coordinates": [ -105.161815, 38.8845664 ] } },
{ "type": "Feature", "properties": { "Name": "Cheyenne Mountain State Park", "State": "Colorado", "Type": "NP" }, "geometry": { "type": "Point", "coordinates": [ -104.83288, 38.7291548 ] } },
{ "type": "Feature", "properties": { "Name": "State Forest State Park", "State": "Colorado", "Type": "NP" }, "geometry": { "type": "Point", "coordinates": [ -105.9955796, 40.6803852 ] } },
{ "type": "Feature", "properties": { "Name": "Mesa Verde National Park", "State": "Colorado", "Type": "NP" }, "geometry": { "type": "Point", "coordinates": [ -108.4618335, 37.2308729 ] } },
{ "type": "Feature", "properties": { "Name": "Castlewood Canyon State Park", "State": "Colorado", "Type": "NP" }, "geometry": { "type": "Point", "coordinates": [ -104.7401173, 39.3336344 ] } },
{ "type": "Feature", "properties": { "Name": "Eldorado Canyon State Park", "State": "Colorado", "Type": "NP" }, "geometry": { "type": "Point", "coordinates": [ -105.2941, 39.9289759 ] } },
{ "type": "Feature", "properties": { "Name": "Arapaho and Roosevelt National Forests", "State": "Colorado", "Type": "NP" }, "geometry": { "type": "Point", "coordinates": [ -105.7400551, 40.0786245 ] } },
{ "type": "Feature", "properties": { "Name": "Rifle Falls State Park", "State": "Colorado", "Type": "NP" }, "geometry": { "type": "Point", "coordinates": [ -107.699228, 39.6742208 ] } },
{ "type": "Feature", "properties": { "Name": "Black Rock State Park", "State": "Connecticut", "Type": "NP" }, "geometry": { "type": "Point", "coordinates": [ -73.1069436, 41.6546487 ] } },
{ "type": "Feature", "properties": { "Name": "Pachaug State Forest", "State": "Connecticut", "Type": "NP" }, "geometry": { "type": "Point", "coordinates": [ -71.876069, 41.584151899999988 ] } },
{ "type": "Feature", "properties": { "Name": "Indian Well State Park", "State": "Connecticut", "Type": "NP" }, "geometry": { "type": "Point", "coordinates": [ -73.1240183, 41.341579499999987 ] } },
{ "type": "Feature", "properties": { "Name": "Macedonia Brook State Park", "State": "Connecticut", "Type": "NP" }, "geometry": { "type": "Point", "coordinates": [ -73.4950796, 41.7662438 ] } },
{ "type": "Feature", "properties": { "Name": "Devil's Hopyard State Park", "State": "Connecticut", "Type": "NP" }, "geometry": { "type": "Point", "coordinates": [ -72.3416213, 41.4794712 ] } },
{ "type": "Feature", "properties": { "Name": "Nepaug State Forest", "State": "Connecticut", "Type": "NP" }, "geometry": { "type": "Point", "coordinates": [ -72.9633807, 41.8410529 ] } },
{ "type": "Feature", "properties": { "Name": "Rocky Neck State Park", "State": "Connecticut", "Type": "NP" }, "geometry": { "type": "Point", "coordinates": [ -72.2413402, 41.315833 ] } },
{ "type": "Feature", "properties": { "Name": "Pattaconk Recreation Area (Cockaponset State Forest)", "State": "Connecticut", "Type": "NP" }, "geometry": { "type": "Point", "coordinates": [ -72.524153, 41.4093494 ] } },
{ "type": "Feature", "properties": { "Name": "Mt Tom State Park", "State": "Connecticut", "Type": "NP" }, "geometry": { "type": "Point", "coordinates": [ -73.2779197, 41.6952956 ] } },
{ "type": "Feature", "properties": { "Name": "Campbell Falls State Park", "State": "Connecticut", "Type": "NP" }, "geometry": { "type": "Point", "coordinates": [ -73.2269814, 42.0411794 ] } },
{ "type": "Feature", "properties": { "Name": "Mono Pond State Park Reserve", "State": "Connecticut", "Type": "NP" }, "geometry": { "type": "Point", "coordinates": [ -72.3106064, 41.6789304 ] } },
{ "type": "Feature", "properties": { "Name": "Mooween State Park", "State": "Connecticut", "Type": "NP" }, "geometry": { "type": "Point", "coordinates": [ -72.2242039, 41.5579226 ] } },
{ "type": "Feature", "properties": { "Name": "Chatfield Hollow State Park", "State": "Connecticut", "Type": "NP" }, "geometry": { "type": "Point", "coordinates": [ -72.585892, 41.3658849 ] } },
{ "type": "Feature", "properties": { "Name": "Weir Farm National Historical Park", "State": "Connecticut", "Type": "NP" }, "geometry": { "type": "Point", "coordinates": [ -73.4540046, 41.2580206 ] } },
{ "type": "Feature", "properties": { "Name": "Selden Neck State Park", "State": "Connecticut", "Type": "NP" }, "geometry": { "type": "Point", "coordinates": [ -72.4110196, 41.3993922 ] } },
{ "type": "Feature", "properties": { "Name": "Gay City State Park", "State": "Connecticut", "Type": "NP" }, "geometry": { "type": "Point", "coordinates": [ -72.4449598, 41.7240442 ] } },
{ "type": "Feature", "properties": { "Name": "Nipmuck State Forest", "State": "Connecticut", "Type": "NP" }, "geometry": { "type": "Point", "coordinates": [ -72.1712309, 42.015808799999988 ] } },
{ "type": "Feature", "properties": { "Name": "Wadsworth Falls State Park", "State": "Connecticut", "Type": "NP" }, "geometry": { "type": "Point", "coordinates": [ -72.6860404, 41.5369083 ] } },
{ "type": "Feature", "properties": { "Name": "Cockaponset State Forest", "State": "Connecticut", "Type": "NP" }, "geometry": { "type": "Point", "coordinates": [ -72.5208377, 41.4598226 ] } },
{ "type": "Feature", "properties": { "Name": "Sleeping Giant State Park", "State": "Connecticut", "Type": "NP" }, "geometry": { "type": "Point", "coordinates": [ -72.8992361, 41.4209689 ] } },
{ "type": "Feature", "properties": { "Name": "Cape Henlopen State Park", "State": "Delaware", "Type": "NP" }, "geometry": { "type": "Point", "coordinates": [ -75.1032533, 38.7821424 ] } },
{ "type": "Feature", "properties": { "Name": "Fort Delaware State Park", "State": "Delaware", "Type": "NP" }, "geometry": { "type": "Point", "coordinates": [ -75.587367, 39.578484 ] } },
{ "type": "Feature", "properties": { "Name": "Fort DuPont State Park", "State": "Delaware", "Type": "NP" }, "geometry": { "type": "Point", "coordinates": [ -75.5811237, 39.573104099999988 ] } },
{ "type": "Feature", "properties": { "Name": "First State National Historical Park", "State": "Delaware", "Type": "NP" }, "geometry": { "type": "Point", "coordinates": [ -75.563597, 39.659815 ] } },
{ "type": "Feature", "properties": { "Name": "Bellevue State Park", "State": "Delaware", "Type": "NP" }, "geometry": { "type": "Point", "coordinates": [ -75.5001711, 39.782112700000013 ] } },
{ "type": "Feature", "properties": { "Name": "Auburn Valley State Park", "State": "Delaware", "Type": "NP" }, "geometry": { "type": "Point", "coordinates": [ -75.679408, 39.80964 ] } },
{ "type": "Feature", "properties": { "Name": "Delaware Seashore State Park", "State": "Delaware", "Type": "NP" }, "geometry": { "type": "Point", "coordinates": [ -75.0669549, 38.6340385 ] } },
{ "type": "Feature", "properties": { "Name": "Killens Pond State Park", "State": "Delaware", "Type": "NP" }, "geometry": { "type": "Point", "coordinates": [ -75.5427645, 38.987218 ] } },
{ "type": "Feature", "properties": { "Name": "White Clay Creek State Park", "State": "Delaware", "Type": "NP" }, "geometry": { "type": "Point", "coordinates": [ -75.7580196, 39.7348663 ] } },
{ "type": "Feature", "properties": { "Name": "Fenwick Island State Park", "State": "Delaware", "Type": "NP" }, "geometry": { "type": "Point", "coordinates": [ -75.0503637, 38.4718053 ] } },
{ "type": "Feature", "properties": { "Name": "Trap Pond State Park", "State": "Delaware", "Type": "NP" }, "geometry": { "type": "Point", "coordinates": [ -75.476406, 38.5258168 ] } },
{ "type": "Feature", "properties": { "Name": "Wilmington State Parks", "State": "Delaware", "Type": "NP" }, "geometry": { "type": "Point", "coordinates": [ -75.5525045, 39.7606978 ] } },
{ "type": "Feature", "properties": { "Name": "Killens Pond State Park Nature Center", "State": "Delaware", "Type": "NP" }, "geometry": { "type": "Point", "coordinates": [ -75.532546, 38.98403 ] } },
{ "type": "Feature", "properties": { "Name": "Brandywine Creek State Park", "State": "Delaware", "Type": "NP" }, "geometry": { "type": "Point", "coordinates": [ -75.572962300000015, 39.8059928 ] } },
{ "type": "Feature", "properties": { "Name": "Fox Point State Park", "State": "Delaware", "Type": "NP" }, "geometry": { "type": "Point", "coordinates": [ -75.4897222, 39.7561111 ] } },
{ "type": "Feature", "properties": { "Name": "Delaware Seashore State Park", "State": "Delaware", "Type": "NP" }, "geometry": { "type": "Point", "coordinates": [ -75.0716849, 38.6128174 ] } },
{ "type": "Feature", "properties": { "Name": "Lums Pond State Park", "State": "Delaware", "Type": "NP" }, "geometry": { "type": "Point", "coordinates": [ -75.7190612, 39.5603194 ] } },
{ "type": "Feature", "properties": { "Name": "Cape Henlopen Great Dune, Delaware", "State": "Delaware", "Type": "NP" }, "geometry": { "type": "Point", "coordinates": [ -75.087315, 38.776727 ] } },
{ "type": "Feature", "properties": { "Name": "Redden State Forest", "State": "Delaware", "Type": "NP" }, "geometry": { "type": "Point", "coordinates": [ -75.4082697, 38.7410634 ] } },
{ "type": "Feature", "properties": { "Name": "Gordons Pond State Park Area", "State": "Delaware", "Type": "NP" }, "geometry": { "type": "Point", "coordinates": [ -75.0817825, 38.7396277 ] } },
{ "type": "Feature", "properties": { "Name": "Dry Tortugas National Park", "State": "Florida", "Type": "NP" }, "geometry": { "type": "Point", "coordinates": [ -82.8731874, 24.628477 ] } },
{ "type": "Feature", "properties": { "Name": "De León Springs State Park", "State": "Florida", "Type": "NP" }, "geometry": { "type": "Point", "coordinates": [ -81.3610949, 29.1325701 ] } },
{ "type": "Feature", "properties": { "Name": "Everglades National Park", "State": "Florida", "Type": "NP" }, "geometry": { "type": "Point", "coordinates": [ -80.8986509, 25.2866155 ] } },
{ "type": "Feature", "properties": { "Name": "Biscayne National Park", "State": "Florida", "Type": "NP" }, "geometry": { "type": "Point", "coordinates": [ -80.2083103, 25.4824229 ] } },
{ "type": "Feature", "properties": { "Name": "Big Cypress National Preserve", "State": "Florida", "Type": "NP" }, "geometry": { "type": "Point", "coordinates": [ -81.0754657, 26.0485819 ] } },
{ "type": "Feature", "properties": { "Name": "Wekiwa Springs State Park", "State": "Florida", "Type": "NP" }, "geometry": { "type": "Point", "coordinates": [ -81.4835457, 28.7343554 ] } },
{ "type": "Feature", "properties": { "Name": "Ocala National Forest", "State": "Florida", "Type": "NP" }, "geometry": { "type": "Point", "coordinates": [ -81.7398054, 29.2073481 ] } },
{ "type": "Feature", "properties": { "Name": "Koreshan State Park", "State": "Florida", "Type": "NP" }, "geometry": { "type": "Point", "coordinates": [ -81.8156528, 26.4339968 ] } },
{ "type": "Feature", "properties": { "Name": "Blue Spring State Park", "State": "Florida", "Type": "NP" }, "geometry": { "type": "Point", "coordinates": [ -81.3336914, 28.9514391 ] } },
{ "type": "Feature", "properties": { "Name": "Bahia Honda State Park", "State": "Florida", "Type": "NP" }, "geometry": { "type": "Point", "coordinates": [ -81.2744019, 24.6597848 ] } },
{ "type": "Feature", "properties": { "Name": "Highlands Hammock State Park", "State": "Florida", "Type": "NP" }, "geometry": { "type": "Point", "coordinates": [ -81.5474991, 27.4712651 ] } },
{ "type": "Feature", "properties": { "Name": "Jonathan Dickinson State Park", "State": "Florida", "Type": "NP" }, "geometry": { "type": "Point", "coordinates": [ -80.1009152, 27.0034639 ] } },
{ "type": "Feature", "properties": { "Name": "Kissimmee Prairie Preserve State Park", "State": "Florida", "Type": "NP" }, "geometry": { "type": "Point", "coordinates": [ -81.0457148, 27.5843572 ] } },
{ "type": "Feature", "properties": { "Name": "Canaveral National Seashore", "State": "Florida", "Type": "NP" }, "geometry": { "type": "Point", "coordinates": [ -80.7600947, 28.7953098 ] } },
{ "type": "Feature", "properties": { "Name": "Werner-Boyce Salt Springs State Park", "State": "Florida", "Type": "NP" }, "geometry": { "type": "Point", "coordinates": [ -82.7174538, 28.2892215 ] } },
{ "type": "Feature", "properties": { "Name": "Egmont Key State Park", "State": "Florida", "Type": "NP" }, "geometry": { "type": "Point", "coordinates": [ -82.762345, 27.5902853 ] } },
{ "type": "Feature", "properties": { "Name": "Bill Baggs Cape Florida State Park", "State": "Florida", "Type": "NP" }, "geometry": { "type": "Point", "coordinates": [ -80.1585861, 25.675771 ] } },
{ "type": "Feature", "properties": { "Name": "National Park Ranger", "State": "Florida", "Type": "NP" }, "geometry": { "type": "Point", "coordinates": [ -81.0754657, 26.0485819 ] } },
{ "type": "Feature", "properties": { "Name": "Paynes Creek Historic State Park", "State": "Florida", "Type": "NP" }, "geometry": { "type": "Point", "coordinates": [ -81.8086517, 27.6241357 ] } },
{ "type": "Feature", "properties": { "Name": "Lake Griffin State Park", "State": "Florida", "Type": "NP" }, "geometry": { "type": "Point", "coordinates": [ -81.9030745, 28.8578035 ] } },
{ "type": "Feature", "properties": { "Name": "Cloudland Canyon State Park", "State": "Georgia", "Type": "NP" }, "geometry": { "type": "Point", "coordinates": [ -85.4839605, 34.839514 ] } },
{ "type": "Feature", "properties": { "Name": "Tallulah Gorge State Park", "State": "Georgia", "Type": "NP" }, "geometry": { "type": "Point", "coordinates": [ -83.3964755, 34.7427244 ] } },
{ "type": "Feature", "properties": { "Name": "Red Top Mountain State Park", "State": "Georgia", "Type": "NP" }, "geometry": { "type": "Point", "coordinates": [ -84.7042552, 34.1478693 ] } },
{ "type": "Feature", "properties": { "Name": "Fort Mountain State Park", "State": "Georgia", "Type": "NP" }, "geometry": { "type": "Point", "coordinates": [ -84.6954019, 34.760368199999988 ] } },
{ "type": "Feature", "properties": { "Name": "Don Carter State Park", "State": "Georgia", "Type": "NP" }, "geometry": { "type": "Point", "coordinates": [ -83.7479736, 34.3875314 ] } },
{ "type": "Feature", "properties": { "Name": "George L Smith St Park", "State": "Georgia", "Type": "NP" }, "geometry": { "type": "Point", "coordinates": [ -82.1252435, 32.5510315 ] } },
{ "type": "Feature", "properties": { "Name": "Kennesaw Mountain National Battlefield Park", "State": "Georgia", "Type": "NP" }, "geometry": { "type": "Point", "coordinates": [ -84.596399300000016, 33.9513354 ] } },
{ "type": "Feature", "properties": { "Name": "Magnolia Springs State Park", "State": "Georgia", "Type": "NP" }, "geometry": { "type": "Point", "coordinates": [ -81.954472, 32.8833567 ] } },
{ "type": "Feature", "properties": { "Name": "Indian Springs State Park", "State": "Georgia", "Type": "NP" }, "geometry": { "type": "Point", "coordinates": [ -83.9234161, 33.2471752 ] } },
{ "type": "Feature", "properties": { "Name": "Fort Yargo State Park", "State": "Georgia", "Type": "NP" }, "geometry": { "type": "Point", "coordinates": [ -83.7364633, 33.9804857 ] } },
{ "type": "Feature", "properties": { "Name": "Hard Labor Creek State Park", "State": "Georgia", "Type": "NP" }, "geometry": { "type": "Point", "coordinates": [ -83.5957648, 33.6521114 ] } },
{ "type": "Feature", "properties": { "Name": "Jekyll Island State Park", "State": "Georgia", "Type": "NP" }, "geometry": { "type": "Point", "coordinates": [ -81.4202886, 31.0699906 ] } },
{ "type": "Feature", "properties": { "Name": "Reed Bingham State Park", "State": "Georgia", "Type": "NP" }, "geometry": { "type": "Point", "coordinates": [ -83.5389679, 31.1616772 ] } },
{ "type": "Feature", "properties": { "Name": "Fort McAllister State Park", "State": "Georgia", "Type": "NP" }, "geometry": { "type": "Point", "coordinates": [ -81.1957656, 31.8911655 ] } },
{ "type": "Feature", "properties": { "Name": "Providence Canyon State Park", "State": "Georgia", "Type": "NP" }, "geometry": { "type": "Point", "coordinates": [ -84.9143151, 32.0689195 ] } },
{ "type": "Feature", "properties": { "Name": "Watson Mill Bridge State Park", "State": "Georgia", "Type": "NP" }, "geometry": { "type": "Point", "coordinates": [ -83.073417, 34.026052 ] } },
{ "type": "Feature", "properties": { "Name": "Panola Mountain State Park Office and Visitor Center", "State": "Georgia", "Type": "NP" }, "geometry": { "type": "Point", "coordinates": [ -84.1711601, 33.6247205 ] } },
{ "type": "Feature", "properties": { "Name": "Vogel State Park", "State": "Georgia", "Type": "NP" }, "geometry": { "type": "Point", "coordinates": [ -83.925463, 34.7649337 ] } },
{ "type": "Feature", "properties": { "Name": "High Falls State Park", "State": "Georgia", "Type": "NP" }, "geometry": { "type": "Point", "coordinates": [ -84.0149594, 33.1822347 ] } },
{ "type": "Feature", "properties": { "Name": "Stephen C Foster State Park", "State": "Georgia", "Type": "NP" }, "geometry": { "type": "Point", "coordinates": [ -82.3619016, 30.8265892 ] } },
{ "type": "Feature", "properties": { "Name": "Hawaiʻi Volcanoes National Park", "State": "Hawaii", "Type": "NP" }, "geometry": { "type": "Point", "coordinates": [ -155.288496900000013, 19.4193697 ] } },
{ "type": "Feature", "properties": { "Name": "Haleakalā National Park", "State": "Hawaii", "Type": "NP" }, "geometry": { "type": "Point", "coordinates": [ -156.1551524, 20.7203826 ] } },
{ "type": "Feature", "properties": { "Name": "Hawaii Volcanoes National Park Kahuku Unit", "State": "Hawaii", "Type": "NP" }, "geometry": { "type": "Point", "coordinates": [ -155.678015499999987, 19.0640376 ] } },
{ "type": "Feature", "properties": { "Name": "Kalaupapa National Historical Park", "State": "Hawaii", "Type": "NP" }, "geometry": { "type": "Point", "coordinates": [ -156.966509300000013, 21.1924062 ] } },
{ "type": "Feature", "properties": { "Name": "Pu'uhonua O Honaunau National Historical Park", "State": "Hawaii", "Type": "NP" }, "geometry": { "type": "Point", "coordinates": [ -155.9026125, 19.4087958 ] } },
{ "type": "Feature", "properties": { "Name": "Lapakahi State Historical Park", "State": "Hawaii", "Type": "NP" }, "geometry": { "type": "Point", "coordinates": [ -155.8971655, 20.1746174 ] } },
{ "type": "Feature", "properties": { "Name": "Lava Tree State Monument", "State": "Hawaii", "Type": "NP" }, "geometry": { "type": "Point", "coordinates": [ -154.9023025, 19.4836861 ] } },
{ "type": "Feature", "properties": { "Name": "Kaloko-Honokōhau National Historical Park", "State": "Hawaii", "Type": "NP" }, "geometry": { "type": "Point", "coordinates": [ -156.0216868, 19.6778522 ] } },
{ "type": "Feature", "properties": { "Name": "Farragut State Park", "State": "Idaho", "Type": "NP" }, "geometry": { "type": "Point", "coordinates": [ -116.5864409, 47.9531602 ] } },
{ "type": "Feature", "properties": { "Name": "City of Rocks National Reserve", "State": "Idaho", "Type": "NP" }, "geometry": { "type": "Point", "coordinates": [ -113.7037854, 42.0727057 ] } },
{ "type": "Feature", "properties": { "Name": "Land of Yankee Fork State Park", "State": "Idaho", "Type": "NP" }, "geometry": { "type": "Point", "coordinates": [ -114.2105674, 44.475487 ] } },
{ "type": "Feature", "properties": { "Name": "Eagle Island State Park", "State": "Idaho", "Type": "NP" }, "geometry": { "type": "Point", "coordinates": [ -116.3963269, 43.6848469 ] } },
{ "type": "Feature", "properties": { "Name": "Castle Rocks State Park", "State": "Idaho", "Type": "NP" }, "geometry": { "type": "Point", "coordinates": [ -113.67691, 42.136677 ] } },
{ "type": "Feature", "properties": { "Name": "Caribou-Targhee National Forest", "State": "Idaho", "Type": "NP" }, "geometry": { "type": "Point", "coordinates": [ -111.2283324, 44.2631502 ] } },
{ "type": "Feature", "properties": { "Name": "Sawtooth National Forest", "State": "Idaho", "Type": "NP" }, "geometry": { "type": "Point", "coordinates": [ -114.7163589, 43.5534178 ] } },
{ "type": "Feature", "properties": { "Name": "Lucky Peak State Park", "State": "Idaho", "Type": "NP" }, "geometry": { "type": "Point", "coordinates": [ -116.0593412, 43.530185 ] } },
{ "type": "Feature", "properties": { "Name": "Craters of the Moon National Monument & Preserve", "State": "Idaho", "Type": "NP" }, "geometry": { "type": "Point", "coordinates": [ -113.4821281, 43.1717745 ] } },
{ "type": "Feature", "properties": { "Name": "Bruneau Dunes State Park", "State": "Idaho", "Type": "NP" }, "geometry": { "type": "Point", "coordinates": [ -115.7150834, 42.9111653 ] } },
{ "type": "Feature", "properties": { "Name": "Ponderosa State Park", "State": "Idaho", "Type": "NP" }, "geometry": { "type": "Point", "coordinates": [ -116.0897656, 44.9251352 ] } },
{ "type": "Feature", "properties": { "Name": "Thousand Springs State Park - Malad Gorge Unit", "State": "Idaho", "Type": "NP" }, "geometry": { "type": "Point", "coordinates": [ -114.8516046, 42.863166199999988 ] } },
{ "type": "Feature", "properties": { "Name": "Three Island Crossing State Park", "State": "Idaho", "Type": "NP" }, "geometry": { "type": "Point", "coordinates": [ -115.317993, 42.944234 ] } },
{ "type": "Feature", "properties": { "Name": "Mowry State Park", "State": "Idaho", "Type": "NP" }, "geometry": { "type": "Point", "coordinates": [ -116.8571299, 47.4624894 ] } },
{ "type": "Feature", "properties": { "Name": "Idaho State Park North Beach", "State": "Idaho", "Type": "NP" }, "geometry": { "type": "Point", "coordinates": [ -111.2821822, 42.1157573 ] } },
{ "type": "Feature", "properties": { "Name": "Massacre Rocks State Park", "State": "Idaho", "Type": "NP" }, "geometry": { "type": "Point", "coordinates": [ -112.9834936, 42.6809217 ] } },
{ "type": "Feature", "properties": { "Name": "Box Canyon State Park", "State": "Idaho", "Type": "NP" }, "geometry": { "type": "Point", "coordinates": [ -114.7918665, 42.7098138 ] } },
{ "type": "Feature", "properties": { "Name": "Dworshak State Park", "State": "Idaho", "Type": "NP" }, "geometry": { "type": "Point", "coordinates": [ -116.2770965, 46.575871199999987 ] } },
{ "type": "Feature", "properties": { "Name": "Idaho Panhandle National Forest", "State": "Idaho", "Type": "NP" }, "geometry": { "type": "Point", "coordinates": [ -116.6770764, 47.7129382 ] } },
{ "type": "Feature", "properties": { "Name": "Boise National Forest", "State": "Idaho", "Type": "NP" }, "geometry": { "type": "Point", "coordinates": [ -115.6173828, 44.0757921 ] } },
{ "type": "Feature", "properties": { "Name": "Matthiessen State Park", "State": "Illinois", "Type": "NP" }, "geometry": { "type": "Point", "coordinates": [ -89.0244476, 41.2959796 ] } },
{ "type": "Feature", "properties": { "Name": "Mississippi Palisades State Park", "State": "Illinois", "Type": "NP" }, "geometry": { "type": "Point", "coordinates": [ -90.153801, 42.1438478 ] } },
{ "type": "Feature", "properties": { "Name": "Moraine Hills State Park", "State": "Illinois", "Type": "NP" }, "geometry": { "type": "Point", "coordinates": [ -88.2280717, 42.3081016 ] } },
{ "type": "Feature", "properties": { "Name": "Giant City State Park", "State": "Illinois", "Type": "NP" }, "geometry": { "type": "Point", "coordinates": [ -89.185929, 37.6060822 ] } },
{ "type": "Feature", "properties": { "Name": "Rock Cut State Park", "State": "Illinois", "Type": "NP" }, "geometry": { "type": "Point", "coordinates": [ -88.9861098, 42.3540427 ] } },
{ "type": "Feature", "properties": { "Name": "Apple River Canyon State Park", "State": "Illinois", "Type": "NP" }, "geometry": { "type": "Point", "coordinates": [ -90.0528942, 42.4468486 ] } },
{ "type": "Feature", "properties": { "Name": "Illini State Park", "State": "Illinois", "Type": "NP" }, "geometry": { "type": "Point", "coordinates": [ -88.706476, 41.32004 ] } },
{ "type": "Feature", "properties": { "Name": "Castle Rock State Park", "State": "Illinois", "Type": "NP" }, "geometry": { "type": "Point", "coordinates": [ -89.3637455, 41.9776754 ] } },
{ "type": "Feature", "properties": { "Name": "Sam Parr State Park", "State": "Illinois", "Type": "NP" }, "geometry": { "type": "Point", "coordinates": [ -88.122218, 39.0216546 ] } },
{ "type": "Feature", "properties": { "Name": "Illinois Beach State Park", "State": "Illinois", "Type": "NP" }, "geometry": { "type": "Point", "coordinates": [ -87.8043475, 42.4256907 ] } },
{ "type": "Feature", "properties": { "Name": "Kankakee River State Park", "State": "Illinois", "Type": "NP" }, "geometry": { "type": "Point", "coordinates": [ -88.0132466, 41.2080294 ] } },
{ "type": "Feature", "properties": { "Name": "White Pines Forest State Park", "State": "Illinois", "Type": "NP" }, "geometry": { "type": "Point", "coordinates": [ -89.4696009, 41.9936339 ] } },
{ "type": "Feature", "properties": { "Name": "Pere Marquette State Park", "State": "Illinois", "Type": "NP" }, "geometry": { "type": "Point", "coordinates": [ -90.5424312, 38.972707799999988 ] } },
{ "type": "Feature", "properties": { "Name": "Lincoln Trail State Park", "State": "Illinois", "Type": "NP" }, "geometry": { "type": "Point", "coordinates": [ -87.7035584, 39.3467073 ] } },
{ "type": "Feature", "properties": { "Name": "Lowden State Park", "State": "Illinois", "Type": "NP" }, "geometry": { "type": "Point", "coordinates": [ -89.3252494, 42.0352168 ] } },
{ "type": "Feature", "properties": { "Name": "Buffalo Rock State Park", "State": "Illinois", "Type": "NP" }, "geometry": { "type": "Point", "coordinates": [ -88.912957, 41.3296074 ] } },
{ "type": "Feature", "properties": { "Name": "Spring Lake State Fish and Wildlife Area", "State": "Illinois", "Type": "NP" }, "geometry": { "type": "Point", "coordinates": [ -89.8677788, 40.4704112 ] } },
{ "type": "Feature", "properties": { "Name": "Starved Rock State Park", "State": "Illinois", "Type": "NP" }, "geometry": { "type": "Point", "coordinates": [ -89.0059819, 41.3192311 ] } },
{ "type": "Feature", "properties": { "Name": "Frank Holten Park", "State": "Illinois", "Type": "NP" }, "geometry": { "type": "Point", "coordinates": [ -90.084885899999989, 38.5890697 ] } },
{ "type": "Feature", "properties": { "Name": "Matthiessen State Park River Area", "State": "Illinois", "Type": "NP" }, "geometry": { "type": "Point", "coordinates": [ -89.0197723, 41.2787987 ] } },
{ "type": "Feature", "properties": { "Name": "Indiana Dunes National Park", "State": "Indiana", "Type": "NP" }, "geometry": { "type": "Point", "coordinates": [ -87.0524338, 41.6532678 ] } },
{ "type": "Feature", "properties": { "Name": "Indiana Dunes State Park", "State": "Indiana", "Type": "NP" }, "geometry": { "type": "Point", "coordinates": [ -87.039377, 41.6625588 ] } },
{ "type": "Feature", "properties": { "Name": "Turkey Run State Park", "State": "Indiana", "Type": "NP" }, "geometry": { "type": "Point", "coordinates": [ -87.2006059, 39.8909207 ] } },
{ "type": "Feature", "properties": { "Name": "Brown County State Park", "State": "Indiana", "Type": "NP" }, "geometry": { "type": "Point", "coordinates": [ -86.2165859, 39.1933217 ] } },
{ "type": "Feature", "properties": { "Name": "Indiana Dunes State Park", "State": "Indiana", "Type": "NP" }, "geometry": { "type": "Point", "coordinates": [ -87.0401693, 41.6660553 ] } },
{ "type": "Feature", "properties": { "Name": "White River State Park", "State": "Indiana", "Type": "NP" }, "geometry": { "type": "Point", "coordinates": [ -86.1707858, 39.7665464 ] } },
{ "type": "Feature", "properties": { "Name": "Indiana Dunes State Park Nature Center", "State": "Indiana", "Type": "NP" }, "geometry": { "type": "Point", "coordinates": [ -87.049391, 41.6596667 ] } },
{ "type": "Feature", "properties": { "Name": "Indiana Dunes National Park Mount Baldy", "State": "Indiana", "Type": "NP" }, "geometry": { "type": "Point", "coordinates": [ -86.9309649, 41.7055916 ] } },
{ "type": "Feature", "properties": { "Name": "Indiana Dunes National Park West Beach Trail", "State": "Indiana", "Type": "NP" }, "geometry": { "type": "Point", "coordinates": [ -87.2101838, 41.6179491 ] } },
{ "type": "Feature", "properties": { "Name": "Charlestown State Park", "State": "Indiana", "Type": "NP" }, "geometry": { "type": "Point", "coordinates": [ -85.6328929, 38.4220414 ] } },
{ "type": "Feature", "properties": { "Name": "IDNP Miller Woods", "State": "Indiana", "Type": "NP" }, "geometry": { "type": "Point", "coordinates": [ -87.2676665, 41.6067028 ] } },
{ "type": "Feature", "properties": { "Name": "Pikes Peak State Park", "State": "Iowa", "Type": "NP" }, "geometry": { "type": "Point", "coordinates": [ -91.1659498, 42.9955083 ] } },
{ "type": "Feature", "properties": { "Name": "Palisades-Kepler State Park", "State": "Iowa", "Type": "NP" }, "geometry": { "type": "Point", "coordinates": [ -91.5024973, 41.9110261 ] } },
{ "type": "Feature", "properties": { "Name": "Nine Eagles State Park", "State": "Iowa", "Type": "NP" }, "geometry": { "type": "Point", "coordinates": [ -93.7541801, 40.5882949 ] } },
{ "type": "Feature", "properties": { "Name": "Wildcat Den State Park", "State": "Iowa", "Type": "NP" }, "geometry": { "type": "Point", "coordinates": [ -90.8752155, 41.4680796 ] } },
{ "type": "Feature", "properties": { "Name": "George Wyth State Park", "State": "Iowa", "Type": "NP" }, "geometry": { "type": "Point", "coordinates": [ -92.4097303, 42.5344728 ] } },
{ "type": "Feature", "properties": { "Name": "Bellevue State Park - Nelson Unit", "State": "Iowa", "Type": "NP" }, "geometry": { "type": "Point", "coordinates": [ -90.4186291, 42.2488563 ] } },
{ "type": "Feature", "properties": { "Name": "Ledges State Park", "State": "Iowa", "Type": "NP" }, "geometry": { "type": "Point", "coordinates": [ -93.874429600000013, 41.9918546 ] } },
{ "type": "Feature", "properties": { "Name": "Pilot Knob State Park", "State": "Iowa", "Type": "NP" }, "geometry": { "type": "Point", "coordinates": [ -93.5670013, 43.255481800000013 ] } },
{ "type": "Feature", "properties": { "Name": "Maquoketa Caves State Park", "State": "Iowa", "Type": "NP" }, "geometry": { "type": "Point", "coordinates": [ -90.7660557, 42.1201868 ] } },
{ "type": "Feature", "properties": { "Name": "Okamanpedan State Park", "State": "Iowa", "Type": "NP" }, "geometry": { "type": "Point", "coordinates": [ -94.5844913, 43.4893466 ] } },
{ "type": "Feature", "properties": { "Name": "Geode State Park", "State": "Iowa", "Type": "NP" }, "geometry": { "type": "Point", "coordinates": [ -91.3782937, 40.8239732 ] } },
{ "type": "Feature", "properties": { "Name": "Lewis and Clark State Park", "State": "Iowa", "Type": "NP" }, "geometry": { "type": "Point", "coordinates": [ -96.1639455, 42.0408692 ] } },
{ "type": "Feature", "properties": { "Name": "Backbone State Park", "State": "Iowa", "Type": "NP" }, "geometry": { "type": "Point", "coordinates": [ -91.5328204, 42.600913899999988 ] } },
{ "type": "Feature", "properties": { "Name": "Big Creek State Park", "State": "Iowa", "Type": "NP" }, "geometry": { "type": "Point", "coordinates": [ -93.7336099, 41.79313 ] } },
{ "type": "Feature", "properties": { "Name": "Dolliver Memorial State Park", "State": "Iowa", "Type": "NP" }, "geometry": { "type": "Point", "coordinates": [ -94.080525400000013, 42.3894841 ] } },
{ "type": "Feature", "properties": { "Name": "Banner Lakes at Summerset State Park", "State": "Iowa", "Type": "NP" }, "geometry": { "type": "Point", "coordinates": [ -93.5568764, 41.4455844 ] } },
{ "type": "Feature", "properties": { "Name": "Lake Macbride State Park", "State": "Iowa", "Type": "NP" }, "geometry": { "type": "Point", "coordinates": [ -91.5710426, 41.80368 ] } },
{ "type": "Feature", "properties": { "Name": "Elk Rock State Park", "State": "Iowa", "Type": "NP" }, "geometry": { "type": "Point", "coordinates": [ -93.0630928, 41.4005074 ] } },
{ "type": "Feature", "properties": { "Name": "Prairie Rose State Park", "State": "Iowa", "Type": "NP" }, "geometry": { "type": "Point", "coordinates": [ -95.2121684, 41.6002502 ] } },
{ "type": "Feature", "properties": { "Name": "Viking Lake State Park", "State": "Iowa", "Type": "NP" }, "geometry": { "type": "Point", "coordinates": [ -95.043506, 40.971652 ] } },
{ "type": "Feature", "properties": { "Name": "Mushroom Rock State Park", "State": "Kansas", "Type": "NP" }, "geometry": { "type": "Point", "coordinates": [ -98.0305123, 38.7267836 ] } },
{ "type": "Feature", "properties": { "Name": "Little Jerusalem Badlands State Park", "State": "Kansas", "Type": "NP" }, "geometry": { "type": "Point", "coordinates": [ -100.9289044, 38.8025309 ] } },
{ "type": "Feature", "properties": { "Name": "Tallgrass Prairie National Preserve", "State": "Kansas", "Type": "NP" }, "geometry": { "type": "Point", "coordinates": [ -96.5730004, 38.4426255 ] } },
{ "type": "Feature", "properties": { "Name": "Cedar Bluff State Park- Page Creek Area", "State": "Kansas", "Type": "NP" }, "geometry": { "type": "Point", "coordinates": [ -99.770689, 38.7735596 ] } },
{ "type": "Feature", "properties": { "Name": "Kaw Point Park", "State": "Kansas", "Type": "NP" }, "geometry": { "type": "Point", "coordinates": [ -94.6105429, 39.1165937 ] } },
{ "type": "Feature", "properties": { "Name": "Ernie Miller Park & Nature Center", "State": "Kansas", "Type": "NP" }, "geometry": { "type": "Point", "coordinates": [ -94.8409835, 38.8967913 ] } },
{ "type": "Feature", "properties": { "Name": "Miller Nature Park", "State": "Kansas", "Type": "NP" }, "geometry": { "type": "Point", "coordinates": [ -96.3049811, 39.194657600000014 ] } },
{ "type": "Feature", "properties": { "Name": "Fort Zarah State Park", "State": "Kansas", "Type": "NP" }, "geometry": { "type": "Point", "coordinates": [ -98.7138262, 38.3654489 ] } },
{ "type": "Feature", "properties": { "Name": "Cedar Bluff State Park- Bluffton Area", "State": "Kansas", "Type": "NP" }, "geometry": { "type": "Point", "coordinates": [ -99.7325435, 38.8113556 ] } },
{ "type": "Feature", "properties": { "Name": "Kanopolis Lake State Park", "State": "Kansas", "Type": "NP" }, "geometry": { "type": "Point", "coordinates": [ -97.9967682, 38.6548133 ] } },
{ "type": "Feature", "properties": { "Name": "Lawrence Nature Park", "State": "Kansas", "Type": "NP" }, "geometry": { "type": "Point", "coordinates": [ -95.298113199999989, 38.983552 ] } },
{ "type": "Feature", "properties": { "Name": "Prairie Dog State Park", "State": "Kansas", "Type": "NP" }, "geometry": { "type": "Point", "coordinates": [ -99.9440255, 39.8051101 ] } },
{ "type": "Feature", "properties": { "Name": "Clinton State Park", "State": "Kansas", "Type": "NP" }, "geometry": { "type": "Point", "coordinates": [ -95.3642732, 38.9376564 ] } },
{ "type": "Feature", "properties": { "Name": "Tuttle Creek State Park", "State": "Kansas", "Type": "NP" }, "geometry": { "type": "Point", "coordinates": [ -96.581734, 39.2572771 ] } },
{ "type": "Feature", "properties": { "Name": "Sunflower Nature Park", "State": "Kansas", "Type": "NP" }, "geometry": { "type": "Point", "coordinates": [ -95.0162957, 38.9407522 ] } },
{ "type": "Feature", "properties": { "Name": "Cimarron National Grassland", "State": "Kansas", "Type": "NP" }, "geometry": { "type": "Point", "coordinates": [ -101.8542721, 37.1481532 ] } },
{ "type": "Feature", "properties": { "Name": "Lake Scott State Park", "State": "Kansas", "Type": "NP" }, "geometry": { "type": "Point", "coordinates": [ -100.9252166, 38.6853256 ] } },
{ "type": "Feature", "properties": { "Name": "Oregon Trail Nature Park", "State": "Kansas", "Type": "NP" }, "geometry": { "type": "Point", "coordinates": [ -96.1525895, 39.2290725 ] } },
{ "type": "Feature", "properties": { "Name": "Fall River State Park", "State": "Kansas", "Type": "NP" }, "geometry": { "type": "Point", "coordinates": [ -96.097049, 37.654115700000013 ] } },
{ "type": "Feature", "properties": { "Name": "Prairie Park Nature Center", "State": "Kansas", "Type": "NP" }, "geometry": { "type": "Point", "coordinates": [ -95.21668, 38.9332 ] } },
{ "type": "Feature", "properties": { "Name": "Natural Bridge State Resort Park", "State": "Kentucky", "Type": "NP" }, "geometry": { "type": "Point", "coordinates": [ -83.6883748, 37.7769198 ] } },
{ "type": "Feature", "properties": { "Name": "Mammoth Cave National Park", "State": "Kentucky", "Type": "NP" }, "geometry": { "type": "Point", "coordinates": [ -86.1505273, 37.181531 ] } },
{ "type": "Feature", "properties": { "Name": "Kingdom Come State Park", "State": "Kentucky", "Type": "NP" }, "geometry": { "type": "Point", "coordinates": [ -82.9705548, 36.9845765 ] } },
{ "type": "Feature", "properties": { "Name": "Cumberland Gap National Historical Park", "State": "Kentucky", "Type": "NP" }, "geometry": { "type": "Point", "coordinates": [ -83.6085347, 36.6261872 ] } },
{ "type": "Feature", "properties": { "Name": "Cumberland Falls State Resort Park", "State": "Kentucky", "Type": "NP" }, "geometry": { "type": "Point", "coordinates": [ -84.33862, 36.83866 ] } },
{ "type": "Feature", "properties": { "Name": "Cumberland Falls State Park", "State": "Kentucky", "Type": "NP" }, "geometry": { "type": "Point", "coordinates": [ -84.3435021, 36.837991 ] } },
{ "type": "Feature", "properties": { "Name": "Daniel Boone National Forest", "State": "Kentucky", "Type": "NP" }, "geometry": { "type": "Point", "coordinates": [ -84.2879688, 37.0208632 ] } },
{ "type": "Feature", "properties": { "Name": "My Old Kentucky Home State Park", "State": "Kentucky", "Type": "NP" }, "geometry": { "type": "Point", "coordinates": [ -85.4584217, 37.8018521 ] } },
{ "type": "Feature", "properties": { "Name": "Fort Boonesborough State Park", "State": "Kentucky", "Type": "NP" }, "geometry": { "type": "Point", "coordinates": [ -84.2660145, 37.897185 ] } },
{ "type": "Feature", "properties": { "Name": "Old Fort Harrod State Park", "State": "Kentucky", "Type": "NP" }, "geometry": { "type": "Point", "coordinates": [ -84.846999, 37.7619007 ] } },
{ "type": "Feature", "properties": { "Name": "Kincaid Lake State Park", "State": "Kentucky", "Type": "NP" }, "geometry": { "type": "Point", "coordinates": [ -84.2894332, 38.7228394 ] } },
{ "type": "Feature", "properties": { "Name": "Lake Malone State Park", "State": "Kentucky", "Type": "NP" }, "geometry": { "type": "Point", "coordinates": [ -87.0475491, 37.0748858 ] } },
{ "type": "Feature", "properties": { "Name": "Grayson Lake State Park", "State": "Kentucky", "Type": "NP" }, "geometry": { "type": "Point", "coordinates": [ -83.0244687, 38.2036797 ] } },
{ "type": "Feature", "properties": { "Name": "Kentenia State Forest", "State": "Kentucky", "Type": "NP" }, "geometry": { "type": "Point", "coordinates": [ -83.2157985, 36.9242803 ] } },
{ "type": "Feature", "properties": { "Name": "Big Bone Lick State Historic Site", "State": "Kentucky", "Type": "NP" }, "geometry": { "type": "Point", "coordinates": [ -84.7476118, 38.8888642 ] } },
{ "type": "Feature", "properties": { "Name": "Levi Jackson Wilderness Road Park", "State": "Kentucky", "Type": "NP" }, "geometry": { "type": "Point", "coordinates": [ -84.054884, 37.083839 ] } },
{ "type": "Feature", "properties": { "Name": "Paintsville Lake State Park", "State": "Kentucky", "Type": "NP" }, "geometry": { "type": "Point", "coordinates": [ -82.8716655, 37.842614 ] } },
{ "type": "Feature", "properties": { "Name": "Nolin Lake State Park", "State": "Kentucky", "Type": "NP" }, "geometry": { "type": "Point", "coordinates": [ -86.2082256, 37.3034797 ] } },
{ "type": "Feature", "properties": { "Name": "General Burnside Island State Park", "State": "Kentucky", "Type": "NP" }, "geometry": { "type": "Point", "coordinates": [ -84.6034271, 36.9739939 ] } },
{ "type": "Feature", "properties": { "Name": "Abraham Lincoln Birthplace National Historical Park", "State": "Kentucky", "Type": "NP" }, "geometry": { "type": "Point", "coordinates": [ -85.7374931, 37.5311219 ] } },
{ "type": "Feature", "properties": { "Name": "Jean Lafitte National Historical Park and Preserve", "State": "Louisiana", "Type": "NP" }, "geometry": { "type": "Point", "coordinates": [ -90.1337022, 29.8101232 ] } },
{ "type": "Feature", "properties": { "Name": "Fontainebleau State Park", "State": "Louisiana", "Type": "NP" }, "geometry": { "type": "Point", "coordinates": [ -90.038141, 30.337645 ] } },
{ "type": "Feature", "properties": { "Name": "St. Bernard State Park", "State": "Louisiana", "Type": "NP" }, "geometry": { "type": "Point", "coordinates": [ -89.900418, 29.864433 ] } },
{ "type": "Feature", "properties": { "Name": "Lake Bistineau State Park", "State": "Louisiana", "Type": "NP" }, "geometry": { "type": "Point", "coordinates": [ -93.3823251, 32.4414164 ] } },
{ "type": "Feature", "properties": { "Name": "Cane River Creole National Historical Park", "State": "Louisiana", "Type": "NP" }, "geometry": { "type": "Point", "coordinates": [ -93.0047929, 31.663847 ] } },
{ "type": "Feature", "properties": { "Name": "Kisatchie National Forest", "State": "Louisiana", "Type": "NP" }, "geometry": { "type": "Point", "coordinates": [ -92.5185678, 31.6447028 ] } },
{ "type": "Feature", "properties": { "Name": "Sam Houston Jones State Park", "State": "Louisiana", "Type": "NP" }, "geometry": { "type": "Point", "coordinates": [ -93.263756, 30.3003464 ] } },
{ "type": "Feature", "properties": { "Name": "Grand Isle State Park", "State": "Louisiana", "Type": "NP" }, "geometry": { "type": "Point", "coordinates": [ -89.9539773, 29.2585446 ] } },
{ "type": "Feature", "properties": { "Name": "Cypremort Point State Park", "State": "Louisiana", "Type": "NP" }, "geometry": { "type": "Point", "coordinates": [ -91.853194, 29.7345769 ] } },
{ "type": "Feature", "properties": { "Name": "Lake Bruin State Park", "State": "Louisiana", "Type": "NP" }, "geometry": { "type": "Point", "coordinates": [ -91.200761899999989, 31.9584161 ] } },
{ "type": "Feature", "properties": { "Name": "Bogue Chitto State Park", "State": "Louisiana", "Type": "NP" }, "geometry": { "type": "Point", "coordinates": [ -90.1447913, 30.7668393 ] } },
{ "type": "Feature", "properties": { "Name": "Audubon State Historic Site", "State": "Louisiana", "Type": "NP" }, "geometry": { "type": "Point", "coordinates": [ -91.3066, 30.800759 ] } },
{ "type": "Feature", "properties": { "Name": "Lake Fausse Pointe State Park", "State": "Louisiana", "Type": "NP" }, "geometry": { "type": "Point", "coordinates": [ -91.608467100000013, 30.0614475 ] } },
{ "type": "Feature", "properties": { "Name": "North Toledo Bend State Park", "State": "Louisiana", "Type": "NP" }, "geometry": { "type": "Point", "coordinates": [ -93.7363394, 31.5578047 ] } },
{ "type": "Feature", "properties": { "Name": "Louisiana State Arboretum State Preservation Area", "State": "Louisiana", "Type": "NP" }, "geometry": { "type": "Point", "coordinates": [ -92.2913513, 30.8032168 ] } },
{ "type": "Feature", "properties": { "Name": "Lake Claiborne State Park", "State": "Louisiana", "Type": "NP" }, "geometry": { "type": "Point", "coordinates": [ -92.922859, 32.723656 ] } },
{ "type": "Feature", "properties": { "Name": "Magnolia Plantation Grounds (Cane River Creole National Historical Park: National Park Service)", "State": "Louisiana", "Type": "NP" }, "geometry": { "type": "Point", "coordinates": [ -92.9417489, 31.5484706 ] } },
{ "type": "Feature", "properties": { "Name": "South Toledo Bend State Park", "State": "Louisiana", "Type": "NP" }, "geometry": { "type": "Point", "coordinates": [ -93.5750473, 31.2156147 ] } },
{ "type": "Feature", "properties": { "Name": "Fairview-Riverside State Park", "State": "Louisiana", "Type": "NP" }, "geometry": { "type": "Point", "coordinates": [ -90.1403758, 30.4091071 ] } },
{ "type": "Feature", "properties": { "Name": "Tickfaw State Park", "State": "Louisiana", "Type": "NP" }, "geometry": { "type": "Point", "coordinates": [ -90.6312473, 30.3823611 ] } },
{ "type": "Feature", "properties": { "Name": "Camden Hills State Park", "State": "Maine", "Type": "NP" }, "geometry": { "type": "Point", "coordinates": [ -69.0482996, 44.2310537 ] } },
{ "type": "Feature", "properties": { "Name": "Seawall Acadia National Park", "State": "Maine", "Type": "NP" }, "geometry": { "type": "Point", "coordinates": [ -68.300338, 44.240682 ] } },
{ "type": "Feature", "properties": { "Name": "Acadia National Park", "State": "Maine", "Type": "NP" }, "geometry": { "type": "Point", "coordinates": [ -68.2733346, 44.3385559 ] } },
{ "type": "Feature", "properties": { "Name": "Two Lights State Park", "State": "Maine", "Type": "NP" }, "geometry": { "type": "Point", "coordinates": [ -70.2045012, 43.5602487 ] } },
{ "type": "Feature", "properties": { "Name": "Baxter State Park", "State": "Maine", "Type": "NP" }, "geometry": { "type": "Point", "coordinates": [ -68.9427702, 46.0273218 ] } },
{ "type": "Feature", "properties": { "Name": "Lake St. George State Park", "State": "Maine", "Type": "NP" }, "geometry": { "type": "Point", "coordinates": [ -69.347115, 44.3976277 ] } },
{ "type": "Feature", "properties": { "Name": "Peaks-Kenny State Park", "State": "Maine", "Type": "NP" }, "geometry": { "type": "Point", "coordinates": [ -69.27, 45.258 ] } },
{ "type": "Feature", "properties": { "Name": "Moose Point State Park", "State": "Maine", "Type": "NP" }, "geometry": { "type": "Point", "coordinates": [ -68.9447201, 44.4349772 ] } },
{ "type": "Feature", "properties": { "Name": "Quoddy Head State Park", "State": "Maine", "Type": "NP" }, "geometry": { "type": "Point", "coordinates": [ -66.9528303, 44.8159941 ] } },
{ "type": "Feature", "properties": { "Name": "Mt. Blue State Park", "State": "Maine", "Type": "NP" }, "geometry": { "type": "Point", "coordinates": [ -70.3946614, 44.7173939 ] } },
{ "type": "Feature", "properties": { "Name": "Grafton Notch State Park", "State": "Maine", "Type": "NP" }, "geometry": { "type": "Point", "coordinates": [ -70.9061633, 44.5719962 ] } },
{ "type": "Feature", "properties": { "Name": "Bradbury Mountain State Park", "State": "Maine", "Type": "NP" }, "geometry": { "type": "Point", "coordinates": [ -70.1791503, 43.8992268 ] } },
{ "type": "Feature", "properties": { "Name": "Range Pond State Park", "State": "Maine", "Type": "NP" }, "geometry": { "type": "Point", "coordinates": [ -70.342218, 44.038167 ] } },
{ "type": "Feature", "properties": { "Name": "Lamoine State Park", "State": "Maine", "Type": "NP" }, "geometry": { "type": "Point", "coordinates": [ -68.2978219, 44.4550728 ] } },
{ "type": "Feature", "properties": { "Name": "Aroostook State Park", "State": "Maine", "Type": "NP" }, "geometry": { "type": "Point", "coordinates": [ -68.0084378, 46.6155351 ] } },
{ "type": "Feature", "properties": { "Name": "Mount Kineo State Park", "State": "Maine", "Type": "NP" }, "geometry": { "type": "Point", "coordinates": [ -69.739377600000012, 45.7029079 ] } },
{ "type": "Feature", "properties": { "Name": "Cadillac Mountain", "State": "Maine", "Type": "NP" }, "geometry": { "type": "Point", "coordinates": [ -68.2251036, 44.3525816 ] } },
{ "type": "Feature", "properties": { "Name": "Mackworth Island State Park", "State": "Maine", "Type": "NP" }, "geometry": { "type": "Point", "coordinates": [ -70.2347149, 43.6897469 ] } },
{ "type": "Feature", "properties": { "Name": "Katahdin Woods and Waters National Monument", "State": "Maine", "Type": "NP" }, "geometry": { "type": "Point", "coordinates": [ -68.7122925, 45.9565343 ] } },
{ "type": "Feature", "properties": { "Name": "Owls Head State Park", "State": "Maine", "Type": "NP" }, "geometry": { "type": "Point", "coordinates": [ -69.0500116, 44.0912743 ] } },
{ "type": "Feature", "properties": { "Name": "Franklin Point State Park", "State": "Maryland", "Type": "NP" }, "geometry": { "type": "Point", "coordinates": [ -76.5122066, 38.813878 ] } },
{ "type": "Feature", "properties": { "Name": "Piscataway Park", "State": "Maryland", "Type": "NP" }, "geometry": { "type": "Point", "coordinates": [ -77.0598943, 38.6922092 ] } },
{ "type": "Feature", "properties": { "Name": "Chapman State Park", "State": "Maryland", "Type": "NP" }, "geometry": { "type": "Point", "coordinates": [ -77.115994, 38.615062 ] } },
{ "type": "Feature", "properties": { "Name": "Patapsco Valley State Park - Hollofield Area", "State": "Maryland", "Type": "NP" }, "geometry": { "type": "Point", "coordinates": [ -76.7853635, 39.2946975 ] } },
{ "type": "Feature", "properties": { "Name": "Elk Neck State Park", "State": "Maryland", "Type": "NP" }, "geometry": { "type": "Point", "coordinates": [ -75.9848034, 39.4848171 ] } },
{ "type": "Feature", "properties": { "Name": "Catoctin Mountain Park", "State": "Maryland", "Type": "NP" }, "geometry": { "type": "Point", "coordinates": [ -77.4411487, 39.6397198 ] } },
{ "type": "Feature", "properties": { "Name": "Fort Washington Park", "State": "Maryland", "Type": "NP" }, "geometry": { "type": "Point", "coordinates": [ -77.0287469, 38.711901 ] } },
{ "type": "Feature", "properties": { "Name": "Chesapeake and Ohio Canal National Historical Park", "State": "Maryland", "Type": "NP" }, "geometry": { "type": "Point", "coordinates": [ -77.2470342, 39.0015431 ] } },
{ "type": "Feature", "properties": { "Name": "Sandy Point State Park", "State": "Maryland", "Type": "NP" }, "geometry": { "type": "Point", "coordinates": [ -76.4040354, 39.0192353 ] } },
{ "type": "Feature", "properties": { "Name": "Seneca Creek State Park", "State": "Maryland", "Type": "NP" }, "geometry": { "type": "Point", "coordinates": [ -77.2530837, 39.143098 ] } },
{ "type": "Feature", "properties": { "Name": "Martinak State Park", "State": "Maryland", "Type": "NP" }, "geometry": { "type": "Point", "coordinates": [ -75.8363646, 38.8658926 ] } },
{ "type": "Feature", "properties": { "Name": "Patapsco Valley State Park- McKeldin Area", "State": "Maryland", "Type": "NP" }, "geometry": { "type": "Point", "coordinates": [ -76.8869799, 39.3533193 ] } },
{ "type": "Feature", "properties": { "Name": "Maryland National Capital Park", "State": "Maryland", "Type": "NP" }, "geometry": { "type": "Point", "coordinates": [ -76.9312269, 38.7912903 ] } },
{ "type": "Feature", "properties": { "Name": "Fort Foote Park", "State": "Maryland", "Type": "NP" }, "geometry": { "type": "Point", "coordinates": [ -77.0251975, 38.7669059 ] } },
{ "type": "Feature", "properties": { "Name": "Hart-Miller Island State Park", "State": "Maryland", "Type": "NP" }, "geometry": { "type": "Point", "coordinates": [ -76.3666226, 39.25109 ] } },
{ "type": "Feature", "properties": { "Name": "Greenbelt Park", "State": "Maryland", "Type": "NP" }, "geometry": { "type": "Point", "coordinates": [ -76.8975474, 38.982649 ] } },
{ "type": "Feature", "properties": { "Name": "Cunningham Falls State Park", "State": "Maryland", "Type": "NP" }, "geometry": { "type": "Point", "coordinates": [ -77.4612002, 39.6268418 ] } },
{ "type": "Feature", "properties": { "Name": "Monocacy National Battlefield", "State": "Maryland", "Type": "NP" }, "geometry": { "type": "Point", "coordinates": [ -77.3972936, 39.3774539 ] } },
{ "type": "Feature", "properties": { "Name": "North Point State Park", "State": "Maryland", "Type": "NP" }, "geometry": { "type": "Point", "coordinates": [ -76.424492, 39.222242 ] } },
{ "type": "Feature", "properties": { "Name": "Maryland National Capital Park", "State": "Maryland", "Type": "NP" }, "geometry": { "type": "Point", "coordinates": [ -76.918002, 38.968891 ] } },
{ "type": "Feature", "properties": { "Name": "Moore State Park", "State": "Massachusetts", "Type": "NP" }, "geometry": { "type": "Point", "coordinates": [ -71.9550534, 42.3102955 ] } },
{ "type": "Feature", "properties": { "Name": "Minute Man National Historical Park", "State": "Massachusetts", "Type": "NP" }, "geometry": { "type": "Point", "coordinates": [ -71.3013922, 42.4543332 ] } },
{ "type": "Feature", "properties": { "Name": "Ashland State Park", "State": "Massachusetts", "Type": "NP" }, "geometry": { "type": "Point", "coordinates": [ -71.470563, 42.2426291 ] } },
{ "type": "Feature", "properties": { "Name": "Lowell National Historical Park", "State": "Massachusetts", "Type": "NP" }, "geometry": { "type": "Point", "coordinates": [ -71.3133247, 42.6443847 ] } },
{ "type": "Feature", "properties": { "Name": "Halibut Point State Park", "State": "Massachusetts", "Type": "NP" }, "geometry": { "type": "Point", "coordinates": [ -70.6336345, 42.6896175 ] } },
{ "type": "Feature", "properties": { "Name": "Borderland State Park", "State": "Massachusetts", "Type": "NP" }, "geometry": { "type": "Point", "coordinates": [ -71.1566499, 42.0715479 ] } },
{ "type": "Feature", "properties": { "Name": "Wompatuck State Park", "State": "Massachusetts", "Type": "NP" }, "geometry": { "type": "Point", "coordinates": [ -70.8473876, 42.2040799 ] } },
{ "type": "Feature", "properties": { "Name": "Watson Pond State Park", "State": "Massachusetts", "Type": "NP" }, "geometry": { "type": "Point", "coordinates": [ -71.114029, 41.950143 ] } },
{ "type": "Feature", "properties": { "Name": "Boston Harbor Islands State Park", "State": "Massachusetts", "Type": "NP" }, "geometry": { "type": "Point", "coordinates": [ -70.929416, 42.300529 ] } },
{ "type": "Feature", "properties": { "Name": "Webb Memorial State Park", "State": "Massachusetts", "Type": "NP" }, "geometry": { "type": "Point", "coordinates": [ -70.922752, 42.2575426 ] } },
{ "type": "Feature", "properties": { "Name": "Boston Harbor Islands National & State Park", "State": "Massachusetts", "Type": "NP" }, "geometry": { "type": "Point", "coordinates": [ -70.949313, 42.3119127 ] } },
{ "type": "Feature", "properties": { "Name": "Cochituate State Park", "State": "Massachusetts", "Type": "NP" }, "geometry": { "type": "Point", "coordinates": [ -71.3774657, 42.309032 ] } },
{ "type": "Feature", "properties": { "Name": "Lynn Heritage State Park", "State": "Massachusetts", "Type": "NP" }, "geometry": { "type": "Point", "coordinates": [ -70.9438139, 42.4596069 ] } },
{ "type": "Feature", "properties": { "Name": "Bradley Palmer State Park", "State": "Massachusetts", "Type": "NP" }, "geometry": { "type": "Point", "coordinates": [ -70.898129, 42.6499489 ] } },
{ "type": "Feature", "properties": { "Name": "Dunn State Park", "State": "Massachusetts", "Type": "NP" }, "geometry": { "type": "Point", "coordinates": [ -71.9712156, 42.5801535 ] } },
{ "type": "Feature", "properties": { "Name": "Pilgrim Memorial State Park", "State": "Massachusetts", "Type": "NP" }, "geometry": { "type": "Point", "coordinates": [ -70.662252, 41.958966 ] } },
{ "type": "Feature", "properties": { "Name": "Harold Parker State Forest", "State": "Massachusetts", "Type": "NP" }, "geometry": { "type": "Point", "coordinates": [ -71.0788756, 42.6265955 ] } },
{ "type": "Feature", "properties": { "Name": "Callahan State Park", "State": "Massachusetts", "Type": "NP" }, "geometry": { "type": "Point", "coordinates": [ -71.4745617, 42.3282372 ] } },
{ "type": "Feature", "properties": { "Name": "Lowell Heritage State Park", "State": "Massachusetts", "Type": "NP" }, "geometry": { "type": "Point", "coordinates": [ -71.340108, 42.643714 ] } },
{ "type": "Feature", "properties": { "Name": "Pearl Hill State Park", "State": "Massachusetts", "Type": "NP" }, "geometry": { "type": "Point", "coordinates": [ -71.763833, 42.6543204 ] } },
{ "type": "Feature", "properties": { "Name": "Isle Royale National Park", "State": "Michigan", "Type": "NP" }, "geometry": { "type": "Point", "coordinates": [ -88.9092899, 47.9958654 ] } },
{ "type": "Feature", "properties": { "Name": "Pictured Rocks National Lakeshore", "State": "Michigan", "Type": "NP" }, "geometry": { "type": "Point", "coordinates": [ -86.3186376, 46.5687756 ] } },
{ "type": "Feature", "properties": { "Name": "Mackinac Island State Park", "State": "Michigan", "Type": "NP" }, "geometry": { "type": "Point", "coordinates": [ -84.6195551, 45.8600273 ] } },
{ "type": "Feature", "properties": { "Name": "Muskegon State Park", "State": "Michigan", "Type": "NP" }, "geometry": { "type": "Point", "coordinates": [ -86.3415005, 43.2475206 ] } },
{ "type": "Feature", "properties": { "Name": "Hiawatha National Forest", "State": "Michigan", "Type": "NP" }, "geometry": { "type": "Point", "coordinates": [ -86.4450624, 46.1444574 ] } },
{ "type": "Feature", "properties": { "Name": "Indian Lake State Park", "State": "Michigan", "Type": "NP" }, "geometry": { "type": "Point", "coordinates": [ -86.3335343, 45.941678 ] } },
{ "type": "Feature", "properties": { "Name": "Fisherman's Island State Park", "State": "Michigan", "Type": "NP" }, "geometry": { "type": "Point", "coordinates": [ -85.3101978, 45.308006 ] } },
{ "type": "Feature", "properties": { "Name": "North Higgins Lake State Park", "State": "Michigan", "Type": "NP" }, "geometry": { "type": "Point", "coordinates": [ -84.7537537, 44.5134426 ] } },
{ "type": "Feature", "properties": { "Name": "Clear Lake State Park", "State": "Michigan", "Type": "NP" }, "geometry": { "type": "Point", "coordinates": [ -84.1770228, 45.1340064 ] } },
{ "type": "Feature", "properties": { "Name": "Petoskey State Park", "State": "Michigan", "Type": "NP" }, "geometry": { "type": "Point", "coordinates": [ -84.9085162, 45.4067167 ] } },
{ "type": "Feature", "properties": { "Name": "Ludington State Park Beach", "State": "Michigan", "Type": "NP" }, "geometry": { "type": "Point", "coordinates": [ -86.5075223, 44.0323502 ] } },
{ "type": "Feature", "properties": { "Name": "Negwegon State Park", "State": "Michigan", "Type": "NP" }, "geometry": { "type": "Point", "coordinates": [ -83.3246235, 44.8551446 ] } },
{ "type": "Feature", "properties": { "Name": "Leelanau State Park", "State": "Michigan", "Type": "NP" }, "geometry": { "type": "Point", "coordinates": [ -85.5460285, 45.2093105 ] } },
{ "type": "Feature", "properties": { "Name": "Wilderness State Park", "State": "Michigan", "Type": "NP" }, "geometry": { "type": "Point", "coordinates": [ -84.9220769, 45.7390953 ] } },
{ "type": "Feature", "properties": { "Name": "Burt Lake State Park", "State": "Michigan", "Type": "NP" }, "geometry": { "type": "Point", "coordinates": [ -84.6217363, 45.4020491 ] } },
{ "type": "Feature", "properties": { "Name": "Hartwick Pines State Park", "State": "Michigan", "Type": "NP" }, "geometry": { "type": "Point", "coordinates": [ -84.6755792, 44.7498233 ] } },
{ "type": "Feature", "properties": { "Name": "Duck Lake State Park", "State": "Michigan", "Type": "NP" }, "geometry": { "type": "Point", "coordinates": [ -86.4046048, 43.3427276 ] } },
{ "type": "Feature", "properties": { "Name": "William Mitchell State Park", "State": "Michigan", "Type": "NP" }, "geometry": { "type": "Point", "coordinates": [ -85.4548406, 44.2383038 ] } },
{ "type": "Feature", "properties": { "Name": "Onaway State Park", "State": "Michigan", "Type": "NP" }, "geometry": { "type": "Point", "coordinates": [ -84.2283046, 45.4327038 ] } },
{ "type": "Feature", "properties": { "Name": "Interlochen State Park", "State": "Michigan", "Type": "NP" }, "geometry": { "type": "Point", "coordinates": [ -85.7649223, 44.6285385 ] } },
{ "type": "Feature", "properties": { "Name": "Jay Cooke State Park", "State": "Minnesota", "Type": "NP" }, "geometry": { "type": "Point", "coordinates": [ -92.3503332, 46.6523325 ] } },
{ "type": "Feature", "properties": { "Name": "Afton State Park", "State": "Minnesota", "Type": "NP" }, "geometry": { "type": "Point", "coordinates": [ -92.7913873, 44.846784799999988 ] } },
{ "type": "Feature", "properties": { "Name": "Gooseberry Falls State Park", "State": "Minnesota", "Type": "NP" }, "geometry": { "type": "Point", "coordinates": [ -91.4653688, 47.1456215 ] } },
{ "type": "Feature", "properties": { "Name": "Mississippi National River & Recreation Area", "State": "Minnesota", "Type": "NP" }, "geometry": { "type": "Point", "coordinates": [ -93.112697, 44.9321407 ] } },
{ "type": "Feature", "properties": { "Name": "Tettegouche State Park", "State": "Minnesota", "Type": "NP" }, "geometry": { "type": "Point", "coordinates": [ -91.1959925, 47.3393554 ] } },
{ "type": "Feature", "properties": { "Name": "Minneopa State Park", "State": "Minnesota", "Type": "NP" }, "geometry": { "type": "Point", "coordinates": [ -94.095212, 44.1478375 ] } },
{ "type": "Feature", "properties": { "Name": "Old Mill State Park", "State": "Minnesota", "Type": "NP" }, "geometry": { "type": "Point", "coordinates": [ -96.566905, 48.361523 ] } },
{ "type": "Feature", "properties": { "Name": "Fort Snelling State Park", "State": "Minnesota", "Type": "NP" }, "geometry": { "type": "Point", "coordinates": [ -93.1911771, 44.8660386 ] } },
{ "type": "Feature", "properties": { "Name": "Lac qui Parle State Park", "State": "Minnesota", "Type": "NP" }, "geometry": { "type": "Point", "coordinates": [ -95.8884076, 45.0525108 ] } },
{ "type": "Feature", "properties": { "Name": "Sibley State Park", "State": "Minnesota", "Type": "NP" }, "geometry": { "type": "Point", "coordinates": [ -95.0475373, 45.3243782 ] } },
{ "type": "Feature", "properties": { "Name": "Grand Portage State Park", "State": "Minnesota", "Type": "NP" }, "geometry": { "type": "Point", "coordinates": [ -89.5931273, 48.0005579 ] } },
{ "type": "Feature", "properties": { "Name": "Camden State Park", "State": "Minnesota", "Type": "NP" }, "geometry": { "type": "Point", "coordinates": [ -95.9198499, 44.3560223 ] } },
{ "type": "Feature", "properties": { "Name": "Banning State Park", "State": "Minnesota", "Type": "NP" }, "geometry": { "type": "Point", "coordinates": [ -92.8487812, 46.1792677 ] } },
{ "type": "Feature", "properties": { "Name": "Glacial Lakes State Park", "State": "Minnesota", "Type": "NP" }, "geometry": { "type": "Point", "coordinates": [ -95.531334, 45.541199 ] } },
{ "type": "Feature", "properties": { "Name": "Interstate State Park", "State": "Minnesota", "Type": "NP" }, "geometry": { "type": "Point", "coordinates": [ -92.6689911, 45.3936675 ] } },
{ "type": "Feature", "properties": { "Name": "St. Croix State Park", "State": "Minnesota", "Type": "NP" }, "geometry": { "type": "Point", "coordinates": [ -92.6130887, 45.9535558 ] } },
{ "type": "Feature", "properties": { "Name": "Maplewood State Park", "State": "Minnesota", "Type": "NP" }, "geometry": { "type": "Point", "coordinates": [ -95.950748499999989, 46.5161557 ] } },
{ "type": "Feature", "properties": { "Name": "Crow Wing State Park", "State": "Minnesota", "Type": "NP" }, "geometry": { "type": "Point", "coordinates": [ -94.3188167, 46.2640767 ] } },
{ "type": "Feature", "properties": { "Name": "Temperance River State Park", "State": "Minnesota", "Type": "NP" }, "geometry": { "type": "Point", "coordinates": [ -90.871532699999989, 47.5558576 ] } },
{ "type": "Feature", "properties": { "Name": "Nerstrand Big Woods State Park", "State": "Minnesota", "Type": "NP" }, "geometry": { "type": "Point", "coordinates": [ -93.105167, 44.342212 ] } },
{ "type": "Feature", "properties": { "Name": "De Soto National Forest", "State": "Mississippi", "Type": "NP" }, "geometry": { "type": "Point", "coordinates": [ -88.9833333, 31.0669444 ] } },
{ "type": "Feature", "properties": { "Name": "Homochitto National Forest", "State": "Mississippi", "Type": "NP" }, "geometry": { "type": "Point", "coordinates": [ -91.020322400000012, 31.3958593 ] } },
{ "type": "Feature", "properties": { "Name": "Vicksburg National Military Park", "State": "Mississippi", "Type": "NP" }, "geometry": { "type": "Point", "coordinates": [ -90.8452588, 32.3548532 ] } },
{ "type": "Feature", "properties": { "Name": "Tombigbee National Forest", "State": "Mississippi", "Type": "NP" }, "geometry": { "type": "Point", "coordinates": [ -89.0561532, 33.2102882 ] } },
{ "type": "Feature", "properties": { "Name": "Bienville National Forest", "State": "Mississippi", "Type": "NP" }, "geometry": { "type": "Point", "coordinates": [ -89.4742177, 32.2642997 ] } },
{ "type": "Feature", "properties": { "Name": "Grand Gulf Military State Park", "State": "Mississippi", "Type": "NP" }, "geometry": { "type": "Point", "coordinates": [ -91.0549403, 32.0287329 ] } },
{ "type": "Feature", "properties": { "Name": "Natchez National Historical Park", "State": "Mississippi", "Type": "NP" }, "geometry": { "type": "Point", "coordinates": [ -91.405937, 31.559982 ] } },
{ "type": "Feature", "properties": { "Name": "Holly Springs National Forest", "State": "Mississippi", "Type": "NP" }, "geometry": { "type": "Point", "coordinates": [ -89.3042816, 34.7002298 ] } },
{ "type": "Feature", "properties": { "Name": "Donivan Slough", "State": "Mississippi", "Type": "NP" }, "geometry": { "type": "Point", "coordinates": [ -88.4769, 34.462 ] } },
{ "type": "Feature", "properties": { "Name": "US National Park Services", "State": "Mississippi", "Type": "NP" }, "geometry": { "type": "Point", "coordinates": [ -90.1570434, 32.4302304 ] } },
{ "type": "Feature", "properties": { "Name": "Percy E Quin State Park", "State": "Mississippi", "Type": "NP" }, "geometry": { "type": "Point", "coordinates": [ -90.5033333, 31.1901005 ] } },
{ "type": "Feature", "properties": { "Name": "Wall Doxey State Park", "State": "Mississippi", "Type": "NP" }, "geometry": { "type": "Point", "coordinates": [ -89.4605062, 34.6647507 ] } },
{ "type": "Feature", "properties": { "Name": "Burnside State Park", "State": "Mississippi", "Type": "NP" }, "geometry": { "type": "Point", "coordinates": [ -89.1003008, 32.843307 ] } },
{ "type": "Feature", "properties": { "Name": "Great River Road State Park", "State": "Mississippi", "Type": "NP" }, "geometry": { "type": "Point", "coordinates": [ -91.038626900000011, 33.8474455 ] } },
{ "type": "Feature", "properties": { "Name": "Delta National Forest", "State": "Mississippi", "Type": "NP" }, "geometry": { "type": "Point", "coordinates": [ -90.7913247, 32.760815 ] } },
{ "type": "Feature", "properties": { "Name": "Golden Memorial State Park", "State": "Mississippi", "Type": "NP" }, "geometry": { "type": "Point", "coordinates": [ -89.4063141, 32.5727565 ] } },
{ "type": "Feature", "properties": { "Name": "Lake Okhissa", "State": "Mississippi", "Type": "NP" }, "geometry": { "type": "Point", "coordinates": [ -90.8296106, 31.4177706 ] } },
{ "type": "Feature", "properties": { "Name": "Paul B Johnson State Park", "State": "Mississippi", "Type": "NP" }, "geometry": { "type": "Point", "coordinates": [ -89.2427393, 31.1393954 ] } },
{ "type": "Feature", "properties": { "Name": "National Park Services", "State": "Mississippi", "Type": "NP" }, "geometry": { "type": "Point", "coordinates": [ -91.3836273, 31.5360956 ] } },
{ "type": "Feature", "properties": { "Name": "Shepard State Park", "State": "Mississippi", "Type": "NP" }, "geometry": { "type": "Point", "coordinates": [ -88.635792, 30.3791889 ] } },
{ "type": "Feature", "properties": { "Name": "Table Rock State Park", "State": "Missouri", "Type": "NP" }, "geometry": { "type": "Point", "coordinates": [ -93.3058087, 36.5863203 ] } },
{ "type": "Feature", "properties": { "Name": "Pershing State Park", "State": "Missouri", "Type": "NP" }, "geometry": { "type": "Point", "coordinates": [ -93.2213258, 39.7670551 ] } },
{ "type": "Feature", "properties": { "Name": "Washington State Park", "State": "Missouri", "Type": "NP" }, "geometry": { "type": "Point", "coordinates": [ -90.683334699999989, 38.0837905 ] } },
{ "type": "Feature", "properties": { "Name": "Gateway Arch National Park", "State": "Missouri", "Type": "NP" }, "geometry": { "type": "Point", "coordinates": [ -90.1858982, 38.6248848 ] } },
{ "type": "Feature", "properties": { "Name": "Grand Gulf State Park", "State": "Missouri", "Type": "NP" }, "geometry": { "type": "Point", "coordinates": [ -91.643829, 36.5438286 ] } },
{ "type": "Feature", "properties": { "Name": "Elephant Rocks State Park", "State": "Missouri", "Type": "NP" }, "geometry": { "type": "Point", "coordinates": [ -90.6879919, 37.654487499999988 ] } },
{ "type": "Feature", "properties": { "Name": "Hawn State Park", "State": "Missouri", "Type": "NP" }, "geometry": { "type": "Point", "coordinates": [ -90.2291925, 37.830848 ] } },
{ "type": "Feature", "properties": { "Name": "Taum Sauk Mountain State Park", "State": "Missouri", "Type": "NP" }, "geometry": { "type": "Point", "coordinates": [ -90.7272297, 37.572375699999988 ] } },
{ "type": "Feature", "properties": { "Name": "Mark Twain State Park", "State": "Missouri", "Type": "NP" }, "geometry": { "type": "Point", "coordinates": [ -91.79071, 39.4875007 ] } },
{ "type": "Feature", "properties": { "Name": "Bennett Spring State Park", "State": "Missouri", "Type": "NP" }, "geometry": { "type": "Point", "coordinates": [ -92.8588647, 37.7306627 ] } },
{ "type": "Feature", "properties": { "Name": "Ha Ha Tonka State Park", "State": "Missouri", "Type": "NP" }, "geometry": { "type": "Point", "coordinates": [ -92.7604189, 37.9669648 ] } },
{ "type": "Feature", "properties": { "Name": "St. Francois State Park", "State": "Missouri", "Type": "NP" }, "geometry": { "type": "Point", "coordinates": [ -90.5371442, 37.9739927 ] } },
{ "type": "Feature", "properties": { "Name": "Annie and Abel Van Meter State Park", "State": "Missouri", "Type": "NP" }, "geometry": { "type": "Point", "coordinates": [ -93.2623605, 39.2583056 ] } },
{ "type": "Feature", "properties": { "Name": "Knob Noster State Park", "State": "Missouri", "Type": "NP" }, "geometry": { "type": "Point", "coordinates": [ -93.5789386, 38.7522596 ] } },
{ "type": "Feature", "properties": { "Name": "Finger Lakes State Park", "State": "Missouri", "Type": "NP" }, "geometry": { "type": "Point", "coordinates": [ -92.313432, 39.0808638 ] } },
{ "type": "Feature", "properties": { "Name": "Busiek State Forest and Wildlife Area", "State": "Missouri", "Type": "NP" }, "geometry": { "type": "Point", "coordinates": [ -93.236181699999989, 36.8628926 ] } },
{ "type": "Feature", "properties": { "Name": "Cuivre River State Park", "State": "Missouri", "Type": "NP" }, "geometry": { "type": "Point", "coordinates": [ -90.9329444, 39.0367314 ] } },
{ "type": "Feature", "properties": { "Name": "Current River State Park", "State": "Missouri", "Type": "NP" }, "geometry": { "type": "Point", "coordinates": [ -91.4276879, 37.3295493 ] } },
{ "type": "Feature", "properties": { "Name": "Montauk State Park", "State": "Missouri", "Type": "NP" }, "geometry": { "type": "Point", "coordinates": [ -91.6780334, 37.4609974 ] } },
{ "type": "Feature", "properties": { "Name": "Johnson's Shut-Ins State Park", "State": "Missouri", "Type": "NP" }, "geometry": { "type": "Point", "coordinates": [ -90.8483783, 37.5490014 ] } },
{ "type": "Feature", "properties": { "Name": "Glacier National Park", "State": "Montana", "Type": "NP" }, "geometry": { "type": "Point", "coordinates": [ -113.7870225, 48.7596128 ] } },
{ "type": "Feature", "properties": { "Name": "Medicine Rocks State Park", "State": "Montana", "Type": "NP" }, "geometry": { "type": "Point", "coordinates": [ -104.4707361, 46.0443947 ] } },
{ "type": "Feature", "properties": { "Name": "Bannack State Park", "State": "Montana", "Type": "NP" }, "geometry": { "type": "Point", "coordinates": [ -112.9976716, 45.162913 ] } },
{ "type": "Feature", "properties": { "Name": "Giant Springs State Park", "State": "Montana", "Type": "NP" }, "geometry": { "type": "Point", "coordinates": [ -111.228842, 47.534446 ] } },
{ "type": "Feature", "properties": { "Name": "Lone Pine State Park", "State": "Montana", "Type": "NP" }, "geometry": { "type": "Point", "coordinates": [ -114.3376039, 48.1740316 ] } },
{ "type": "Feature", "properties": { "Name": "Lost Creek State Park", "State": "Montana", "Type": "NP" }, "geometry": { "type": "Point", "coordinates": [ -113.0033648, 46.2093171 ] } },
{ "type": "Feature", "properties": { "Name": "Pictograph Cave State Park", "State": "Montana", "Type": "NP" }, "geometry": { "type": "Point", "coordinates": [ -108.43111, 45.737818 ] } },
{ "type": "Feature", "properties": { "Name": "Madison Buffalo Jump State Park", "State": "Montana", "Type": "NP" }, "geometry": { "type": "Point", "coordinates": [ -111.4720568, 45.7945977 ] } },
{ "type": "Feature", "properties": { "Name": "Lewis & Clark Caverns State Park", "State": "Montana", "Type": "NP" }, "geometry": { "type": "Point", "coordinates": [ -111.8627751, 45.834159799999988 ] } },
{ "type": "Feature", "properties": { "Name": "Tower Rock State Park", "State": "Montana", "Type": "NP" }, "geometry": { "type": "Point", "coordinates": [ -111.8101938, 47.188617 ] } },
{ "type": "Feature", "properties": { "Name": "Yellow Bay / Flathead Lake State Park", "State": "Montana", "Type": "NP" }, "geometry": { "type": "Point", "coordinates": [ -114.0290933, 47.8756676 ] } },
{ "type": "Feature", "properties": { "Name": "Helena National Forest", "State": "Montana", "Type": "NP" }, "geometry": { "type": "Point", "coordinates": [ -111.8150142, 46.8027076 ] } },
{ "type": "Feature", "properties": { "Name": "First Peoples Buffalo Jump State Park", "State": "Montana", "Type": "NP" }, "geometry": { "type": "Point", "coordinates": [ -111.5247387, 47.4796208 ] } },
{ "type": "Feature", "properties": { "Name": "Travelers' Rest State Park", "State": "Montana", "Type": "NP" }, "geometry": { "type": "Point", "coordinates": [ -114.0899468, 46.753308 ] } },
{ "type": "Feature", "properties": { "Name": "Anaconda Smoke Stack State Park", "State": "Montana", "Type": "NP" }, "geometry": { "type": "Point", "coordinates": [ -112.9316927, 46.1233422 ] } },
{ "type": "Feature", "properties": { "Name": "Bighorn Canyon National Recreation Area", "State": "Montana", "Type": "NP" }, "geometry": { "type": "Point", "coordinates": [ -108.2466665, 45.0534639 ] } },
{ "type": "Feature", "properties": { "Name": "Flathead National Forest", "State": "Montana", "Type": "NP" }, "geometry": { "type": "Point", "coordinates": [ -113.7570441, 48.0161823 ] } },
{ "type": "Feature", "properties": { "Name": "Black Sandy State Park", "State": "Montana", "Type": "NP" }, "geometry": { "type": "Point", "coordinates": [ -111.8866754, 46.745528500000013 ] } },
{ "type": "Feature", "properties": { "Name": "Nez Perce National Historical Park-Montana", "State": "Montana", "Type": "NP" }, "geometry": { "type": "Point", "coordinates": [ -109.2105374, 48.3774188 ] } },
{ "type": "Feature", "properties": { "Name": "Sluice Boxes State Park", "State": "Montana", "Type": "NP" }, "geometry": { "type": "Point", "coordinates": [ -110.9357163, 47.212159799999988 ] } },
{ "type": "Feature", "properties": { "Name": "Smith Falls State Park", "State": "Nebraska", "Type": "NP" }, "geometry": { "type": "Point", "coordinates": [ -100.3117117, 42.8922896 ] } },
{ "type": "Feature", "properties": { "Name": "Indian Cave State Park", "State": "Nebraska", "Type": "NP" }, "geometry": { "type": "Point", "coordinates": [ -95.579810099999989, 40.2647961 ] } },
{ "type": "Feature", "properties": { "Name": "Fort Robinson State Park", "State": "Nebraska", "Type": "NP" }, "geometry": { "type": "Point", "coordinates": [ -103.4646916, 42.6688568 ] } },
{ "type": "Feature", "properties": { "Name": "Schramm Park State Recreation Area", "State": "Nebraska", "Type": "NP" }, "geometry": { "type": "Point", "coordinates": [ -96.2460682, 41.0186105 ] } },
{ "type": "Feature", "properties": { "Name": "Platte River State Park", "State": "Nebraska", "Type": "NP" }, "geometry": { "type": "Point", "coordinates": [ -96.2168602, 40.9892966 ] } },
{ "type": "Feature", "properties": { "Name": "Schramm Park State Rec Area", "State": "Nebraska", "Type": "NP" }, "geometry": { "type": "Point", "coordinates": [ -96.2513645, 41.0219054 ] } },
{ "type": "Feature", "properties": { "Name": "Niobrara State Park", "State": "Nebraska", "Type": "NP" }, "geometry": { "type": "Point", "coordinates": [ -98.065896, 42.7529368 ] } },
{ "type": "Feature", "properties": { "Name": "Arbor Lodge State Historical Park", "State": "Nebraska", "Type": "NP" }, "geometry": { "type": "Point", "coordinates": [ -95.8779912, 40.6806544 ] } },
{ "type": "Feature", "properties": { "Name": "Ponca State Park", "State": "Nebraska", "Type": "NP" }, "geometry": { "type": "Point", "coordinates": [ -96.709481, 42.5940407 ] } },
{ "type": "Feature", "properties": { "Name": "Toadstool Geological Park and Campground", "State": "Nebraska", "Type": "NP" }, "geometry": { "type": "Point", "coordinates": [ -103.5839159, 42.857667199999987 ] } },
{ "type": "Feature", "properties": { "Name": "Fort Kearny State Historical Park", "State": "Nebraska", "Type": "NP" }, "geometry": { "type": "Point", "coordinates": [ -99.0050695, 40.6436709 ] } },
{ "type": "Feature", "properties": { "Name": "Mormon Island State Recreation Area", "State": "Nebraska", "Type": "NP" }, "geometry": { "type": "Point", "coordinates": [ -98.3763325, 40.8235484 ] } },
{ "type": "Feature", "properties": { "Name": "Eugene T. Mahoney State Park", "State": "Nebraska", "Type": "NP" }, "geometry": { "type": "Point", "coordinates": [ -96.3139126, 41.0252917 ] } },
{ "type": "Feature", "properties": { "Name": "Chadron State Park", "State": "Nebraska", "Type": "NP" }, "geometry": { "type": "Point", "coordinates": [ -103.0090292, 42.7080981 ] } },
{ "type": "Feature", "properties": { "Name": "Windmill State Park", "State": "Nebraska", "Type": "NP" }, "geometry": { "type": "Point", "coordinates": [ -98.844717800000012, 40.7073338 ] } },
{ "type": "Feature", "properties": { "Name": "National Park Services", "State": "Nebraska", "Type": "NP" }, "geometry": { "type": "Point", "coordinates": [ -96.699286199999989, 40.8139468 ] } },
{ "type": "Feature", "properties": { "Name": "Nebraska Game & Park Commission", "State": "Nebraska", "Type": "NP" }, "geometry": { "type": "Point", "coordinates": [ -97.5779724, 42.8303878 ] } },
{ "type": "Feature", "properties": { "Name": "Oglala National Grassland", "State": "Nebraska", "Type": "NP" }, "geometry": { "type": "Point", "coordinates": [ -103.5899733, 42.9404219 ] } },
{ "type": "Feature", "properties": { "Name": "Rock Creek Station State Historical Park", "State": "Nebraska", "Type": "NP" }, "geometry": { "type": "Point", "coordinates": [ -97.0575447, 40.1130342 ] } },
{ "type": "Feature", "properties": { "Name": "Champion Mills State Park", "State": "Nebraska", "Type": "NP" }, "geometry": { "type": "Point", "coordinates": [ -101.7505424, 40.4711949 ] } },
{ "type": "Feature", "properties": { "Name": "Cathedral Gorge State Park", "State": "Nevada", "Type": "NP" }, "geometry": { "type": "Point", "coordinates": [ -114.4120529, 37.8070709 ] } },
{ "type": "Feature", "properties": { "Name": "Kershaw-Ryan State Park", "State": "Nevada", "Type": "NP" }, "geometry": { "type": "Point", "coordinates": [ -114.5332453, 37.5863577 ] } },
{ "type": "Feature", "properties": { "Name": "Spring Mountain Ranch State Park", "State": "Nevada", "Type": "NP" }, "geometry": { "type": "Point", "coordinates": [ -115.4443859, 36.0735706 ] } },
{ "type": "Feature", "properties": { "Name": "Lake Mead National Recreation Area", "State": "Nevada", "Type": "NP" }, "geometry": { "type": "Point", "coordinates": [ -114.4559303, 36.1550863 ] } },
{ "type": "Feature", "properties": { "Name": "Valley of Fire State Park", "State": "Nevada", "Type": "NP" }, "geometry": { "type": "Point", "coordinates": [ -114.5383925, 36.4756593 ] } },
{ "type": "Feature", "properties": { "Name": "Spring Valley State Park", "State": "Nevada", "Type": "NP" }, "geometry": { "type": "Point", "coordinates": [ -114.2028656, 38.0237018 ] } },
{ "type": "Feature", "properties": { "Name": "Mormon Station State Historic Park", "State": "Nevada", "Type": "NP" }, "geometry": { "type": "Point", "coordinates": [ -119.845318, 39.004714 ] } },
{ "type": "Feature", "properties": { "Name": "Great Basin National Park", "State": "Nevada", "Type": "NP" }, "geometry": { "type": "Point", "coordinates": [ -114.2633787, 38.9299798 ] } },
{ "type": "Feature", "properties": { "Name": "Lake Tahoe - Nevada State Park", "State": "Nevada", "Type": "NP" }, "geometry": { "type": "Point", "coordinates": [ -119.9288366, 39.1989908 ] } },
{ "type": "Feature", "properties": { "Name": "Echo Canyon State Park", "State": "Nevada", "Type": "NP" }, "geometry": { "type": "Point", "coordinates": [ -114.2696236, 37.910791 ] } },
{ "type": "Feature", "properties": { "Name": "Cave Lake State Park", "State": "Nevada", "Type": "NP" }, "geometry": { "type": "Point", "coordinates": [ -114.6963955, 39.1937744 ] } },
{ "type": "Feature", "properties": { "Name": "Red Rock Canyon National Conservation Area", "State": "Nevada", "Type": "NP" }, "geometry": { "type": "Point", "coordinates": [ -115.4382967, 36.1944273 ] } },
{ "type": "Feature", "properties": { "Name": "Cave Rock - Lake Tahoe Nevada State Park", "State": "Nevada", "Type": "NP" }, "geometry": { "type": "Point", "coordinates": [ -119.9481235, 39.0423695 ] } },
{ "type": "Feature", "properties": { "Name": "Beaver Dam State Park", "State": "Nevada", "Type": "NP" }, "geometry": { "type": "Point", "coordinates": [ -114.0818707, 37.5157211 ] } },
{ "type": "Feature", "properties": { "Name": "Basin and Range National Monument", "State": "Nevada", "Type": "NP" }, "geometry": { "type": "Point", "coordinates": [ -115.5272574, 38.1879289 ] } },
{ "type": "Feature", "properties": { "Name": "Ward Charcoal Ovens State Historic Park", "State": "Nevada", "Type": "NP" }, "geometry": { "type": "Point", "coordinates": [ -114.8472976, 39.0368996 ] } },
{ "type": "Feature", "properties": { "Name": "Nevada State Park Regional Visitor's Center", "State": "Nevada", "Type": "NP" }, "geometry": { "type": "Point", "coordinates": [ -114.4069148, 37.8039714 ] } },
{ "type": "Feature", "properties": { "Name": "Fort Churchill State Historic Park", "State": "Nevada", "Type": "NP" }, "geometry": { "type": "Point", "coordinates": [ -119.2676947, 39.294404 ] } },
{ "type": "Feature", "properties": { "Name": "Tule Springs Fossil Beds National Monument", "State": "Nevada", "Type": "NP" }, "geometry": { "type": "Point", "coordinates": [ -115.2790438, 36.3359873 ] } },
{ "type": "Feature", "properties": { "Name": "Washoe Lake State Park", "State": "Nevada", "Type": "NP" }, "geometry": { "type": "Point", "coordinates": [ -119.7638941, 39.2420006 ] } },
{ "type": "Feature", "properties": { "Name": "Franconia Notch State Park", "State": "New Hampshire", "Type": "NP" }, "geometry": { "type": "Point", "coordinates": [ -71.6896299, 44.1430035 ] } },
{ "type": "Feature", "properties": { "Name": "Crawford Notch State Park", "State": "New Hampshire", "Type": "NP" }, "geometry": { "type": "Point", "coordinates": [ -71.3913491, 44.1758718 ] } },
{ "type": "Feature", "properties": { "Name": "Mt. Washington State Park", "State": "New Hampshire", "Type": "NP" }, "geometry": { "type": "Point", "coordinates": [ -71.3035118, 44.269637 ] } },
{ "type": "Feature", "properties": { "Name": "Milan Hill State Park", "State": "New Hampshire", "Type": "NP" }, "geometry": { "type": "Point", "coordinates": [ -71.2257432, 44.5727973 ] } },
{ "type": "Feature", "properties": { "Name": "Pillsbury State Park", "State": "New Hampshire", "Type": "NP" }, "geometry": { "type": "Point", "coordinates": [ -72.1204617, 43.232692 ] } },
{ "type": "Feature", "properties": { "Name": "Hampton Beach State Park", "State": "New Hampshire", "Type": "NP" }, "geometry": { "type": "Point", "coordinates": [ -70.8125059, 42.8987094 ] } },
{ "type": "Feature", "properties": { "Name": "Pawtuckaway State Park", "State": "New Hampshire", "Type": "NP" }, "geometry": { "type": "Point", "coordinates": [ -71.1714557, 43.0773127 ] } },
{ "type": "Feature", "properties": { "Name": "Monadnock State Park", "State": "New Hampshire", "Type": "NP" }, "geometry": { "type": "Point", "coordinates": [ -72.1013872, 42.8638179 ] } },
{ "type": "Feature", "properties": { "Name": "White Lake State Park", "State": "New Hampshire", "Type": "NP" }, "geometry": { "type": "Point", "coordinates": [ -71.2087454, 43.8358804 ] } },
{ "type": "Feature", "properties": { "Name": "Mt Sunapee State Park", "State": "New Hampshire", "Type": "NP" }, "geometry": { "type": "Point", "coordinates": [ -72.061758, 43.342902 ] } },
{ "type": "Feature", "properties": { "Name": "Bear Brook State Park", "State": "New Hampshire", "Type": "NP" }, "geometry": { "type": "Point", "coordinates": [ -71.37047, 43.119281 ] } },
{ "type": "Feature", "properties": { "Name": "Odiorne Point State Park", "State": "New Hampshire", "Type": "NP" }, "geometry": { "type": "Point", "coordinates": [ -70.7162369, 43.0440129 ] } },
{ "type": "Feature", "properties": { "Name": "Ahern State Park", "State": "New Hampshire", "Type": "NP" }, "geometry": { "type": "Point", "coordinates": [ -71.4956395, 43.5556743 ] } },
{ "type": "Feature", "properties": { "Name": "White Mountain National Forest", "State": "New Hampshire", "Type": "NP" }, "geometry": { "type": "Point", "coordinates": [ -71.4111797, 44.1544134 ] } },
{ "type": "Feature", "properties": { "Name": "Wellington State Park", "State": "New Hampshire", "Type": "NP" }, "geometry": { "type": "Point", "coordinates": [ -71.779079600000017, 43.6398364 ] } },
{ "type": "Feature", "properties": { "Name": "Mount Major State Forest", "State": "New Hampshire", "Type": "NP" }, "geometry": { "type": "Point", "coordinates": [ -71.2883722, 43.5155801 ] } },
{ "type": "Feature", "properties": { "Name": "Chesterfield Gorge Natural Area", "State": "New Hampshire", "Type": "NP" }, "geometry": { "type": "Point", "coordinates": [ -72.4116529, 42.914309499999987 ] } },
{ "type": "Feature", "properties": { "Name": "Miller State Park", "State": "New Hampshire", "Type": "NP" }, "geometry": { "type": "Point", "coordinates": [ -71.8871498, 42.8498866 ] } },
{ "type": "Feature", "properties": { "Name": "Rhododendron State Park", "State": "New Hampshire", "Type": "NP" }, "geometry": { "type": "Point", "coordinates": [ -72.1904807, 42.7827247 ] } },
{ "type": "Feature", "properties": { "Name": "Cardigan Mountain State Park", "State": "New Hampshire", "Type": "NP" }, "geometry": { "type": "Point", "coordinates": [ -71.9352552, 43.6441003 ] } },
{ "type": "Feature", "properties": { "Name": "Paterson Great Falls National Historical Park", "State": "New Jersey", "Type": "NP" }, "geometry": { "type": "Point", "coordinates": [ -74.1800403, 40.9149503 ] } },
{ "type": "Feature", "properties": { "Name": "Cape May Point State Park", "State": "New Jersey", "Type": "NP" }, "geometry": { "type": "Point", "coordinates": [ -74.9610214, 38.9329209 ] } },
{ "type": "Feature", "properties": { "Name": "Washington Rock State Park", "State": "New Jersey", "Type": "NP" }, "geometry": { "type": "Point", "coordinates": [ -74.472401, 40.6127597 ] } },
{ "type": "Feature", "properties": { "Name": "High Point State Park", "State": "New Jersey", "Type": "NP" }, "geometry": { "type": "Point", "coordinates": [ -74.6989549, 41.2934244 ] } },
{ "type": "Feature", "properties": { "Name": "Monmouth Battlefield State Park", "State": "New Jersey", "Type": "NP" }, "geometry": { "type": "Point", "coordinates": [ -74.3203582, 40.2636828 ] } },
{ "type": "Feature", "properties": { "Name": "National Park", "State": "New Jersey", "Type": "NP" }, "geometry": { "type": "Point", "coordinates": [ -75.1901966, 39.8693422 ] } },
{ "type": "Feature", "properties": { "Name": "Jenny Jump State Forest", "State": "New Jersey", "Type": "NP" }, "geometry": { "type": "Point", "coordinates": [ -74.922874, 40.912799 ] } },
{ "type": "Feature", "properties": { "Name": "Washington Crossing State Park", "State": "New Jersey", "Type": "NP" }, "geometry": { "type": "Point", "coordinates": [ -74.8570453, 40.3049388 ] } },
{ "type": "Feature", "properties": { "Name": "Corson's Inlet State Park", "State": "New Jersey", "Type": "NP" }, "geometry": { "type": "Point", "coordinates": [ -74.6438383, 39.2158381 ] } },
{ "type": "Feature", "properties": { "Name": "Barnegat Lighthouse State Park", "State": "New Jersey", "Type": "NP" }, "geometry": { "type": "Point", "coordinates": [ -74.1063824, 39.7632135 ] } },
{ "type": "Feature", "properties": { "Name": "New Jersey's State Parks, Forests and Historic Sites", "State": "New Jersey", "Type": "NP" }, "geometry": { "type": "Point", "coordinates": [ -74.6727483, 41.3091089 ] } },
{ "type": "Feature", "properties": { "Name": "Cheesequake State Park", "State": "New Jersey", "Type": "NP" }, "geometry": { "type": "Point", "coordinates": [ -74.2692229, 40.4397476 ] } },
{ "type": "Feature", "properties": { "Name": "Wharton State Forest", "State": "New Jersey", "Type": "NP" }, "geometry": { "type": "Point", "coordinates": [ -74.6772018, 39.7187475 ] } },
{ "type": "Feature", "properties": { "Name": "Hacklebarney State Park", "State": "New Jersey", "Type": "NP" }, "geometry": { "type": "Point", "coordinates": [ -74.7364025, 40.7511417 ] } },
{ "type": "Feature", "properties": { "Name": "Gateway National Recreation Area", "State": "New Jersey", "Type": "NP" }, "geometry": { "type": "Point", "coordinates": [ -73.9884966, 40.4397155 ] } },
{ "type": "Feature", "properties": { "Name": "Bass River State Forest", "State": "New Jersey", "Type": "NP" }, "geometry": { "type": "Point", "coordinates": [ -74.4225866, 39.6210643 ] } },
{ "type": "Feature", "properties": { "Name": "Double Trouble State Park", "State": "New Jersey", "Type": "NP" }, "geometry": { "type": "Point", "coordinates": [ -74.2213476, 39.897943 ] } },
{ "type": "Feature", "properties": { "Name": "Red Bank Battlefield Park", "State": "New Jersey", "Type": "NP" }, "geometry": { "type": "Point", "coordinates": [ -75.1899224, 39.8699554 ] } },
{ "type": "Feature", "properties": { "Name": "New Jersey Pinelands National Reserve", "State": "New Jersey", "Type": "NP" }, "geometry": { "type": "Point", "coordinates": [ -74.7487, 39.752 ] } },
{ "type": "Feature", "properties": { "Name": "Liberty State Park", "State": "New Jersey", "Type": "NP" }, "geometry": { "type": "Point", "coordinates": [ -74.0369892, 40.707453699999988 ] } },
{ "type": "Feature", "properties": { "Name": "White Sands National Park", "State": "New Mexico", "Type": "NP" }, "geometry": { "type": "Point", "coordinates": [ -106.3256816, 32.7872403 ] } },
{ "type": "Feature", "properties": { "Name": "Cimarron Canyon State Park", "State": "New Mexico", "Type": "NP" }, "geometry": { "type": "Point", "coordinates": [ -105.134702, 36.5452759 ] } },
{ "type": "Feature", "properties": { "Name": "Bandelier National Monument", "State": "New Mexico", "Type": "NP" }, "geometry": { "type": "Point", "coordinates": [ -106.2742086, 35.7821778 ] } },
{ "type": "Feature", "properties": { "Name": "Hyde Memorial State Park", "State": "New Mexico", "Type": "NP" }, "geometry": { "type": "Point", "coordinates": [ -105.8356138, 35.7375641 ] } },
{ "type": "Feature", "properties": { "Name": "Gila Cliff Dwellings National Monument", "State": "New Mexico", "Type": "NP" }, "geometry": { "type": "Point", "coordinates": [ -108.2706705, 33.2271524 ] } },
{ "type": "Feature", "properties": { "Name": "Santa Rosa Lake State Park", "State": "New Mexico", "Type": "NP" }, "geometry": { "type": "Point", "coordinates": [ -104.6851466, 35.0351832 ] } },
{ "type": "Feature", "properties": { "Name": "Rio Grande Nature Center State Park", "State": "New Mexico", "Type": "NP" }, "geometry": { "type": "Point", "coordinates": [ -106.6828452, 35.1304753 ] } },
{ "type": "Feature", "properties": { "Name": "Pecos National Historical Park", "State": "New Mexico", "Type": "NP" }, "geometry": { "type": "Point", "coordinates": [ -105.6780592, 35.5416823 ] } },
{ "type": "Feature", "properties": { "Name": "Manzano Mountains State Park", "State": "New Mexico", "Type": "NP" }, "geometry": { "type": "Point", "coordinates": [ -106.3609695, 34.6034286 ] } },
{ "type": "Feature", "properties": { "Name": "City of Rocks State Park", "State": "New Mexico", "Type": "NP" }, "geometry": { "type": "Point", "coordinates": [ -107.9751101, 32.5904888 ] } },
{ "type": "Feature", "properties": { "Name": "Carlsbad Caverns National Park", "State": "New Mexico", "Type": "NP" }, "geometry": { "type": "Point", "coordinates": [ -104.5437529, 32.137045 ] } },
{ "type": "Feature", "properties": { "Name": "Lincoln National Forest", "State": "New Mexico", "Type": "NP" }, "geometry": { "type": "Point", "coordinates": [ -105.4412983, 32.9513867 ] } },
{ "type": "Feature", "properties": { "Name": "Cerrillos Hills State Park", "State": "New Mexico", "Type": "NP" }, "geometry": { "type": "Point", "coordinates": [ -106.122426, 35.44465 ] } },
{ "type": "Feature", "properties": { "Name": "Heron Lake State Park", "State": "New Mexico", "Type": "NP" }, "geometry": { "type": "Point", "coordinates": [ -106.6910322, 36.6655473 ] } },
{ "type": "Feature", "properties": { "Name": "Sugarite Canyon State Park", "State": "New Mexico", "Type": "NP" }, "geometry": { "type": "Point", "coordinates": [ -104.3800563, 36.9400514 ] } },
{ "type": "Feature", "properties": { "Name": "Capulin Volcano National Monument", "State": "New Mexico", "Type": "NP" }, "geometry": { "type": "Point", "coordinates": [ -103.9721263, 36.7816231 ] } },
{ "type": "Feature", "properties": { "Name": "Petroglyph National Monument", "State": "New Mexico", "Type": "NP" }, "geometry": { "type": "Point", "coordinates": [ -106.7525097, 35.124381 ] } },
{ "type": "Feature", "properties": { "Name": "Pecos Canyon State Park", "State": "New Mexico", "Type": "NP" }, "geometry": { "type": "Point", "coordinates": [ -105.676194, 35.7426523 ] } },
{ "type": "Feature", "properties": { "Name": "Oasis State Park", "State": "New Mexico", "Type": "NP" }, "geometry": { "type": "Point", "coordinates": [ -103.3487985, 34.2561607 ] } },
{ "type": "Feature", "properties": { "Name": "Leasburg Dam State Park", "State": "New Mexico", "Type": "NP" }, "geometry": { "type": "Point", "coordinates": [ -106.917949, 32.4929909 ] } },
{ "type": "Feature", "properties": { "Name": "Gantry Plaza State Park", "State": "New York", "Type": "NP" }, "geometry": { "type": "Point", "coordinates": [ -73.9582075, 40.746716 ] } },
{ "type": "Feature", "properties": { "Name": "Riverbank State Park", "State": "New York", "Type": "NP" }, "geometry": { "type": "Point", "coordinates": [ -73.9559555, 40.826423600000012 ] } },
{ "type": "Feature", "properties": { "Name": "Marsha P. Johnson State Park", "State": "New York", "Type": "NP" }, "geometry": { "type": "Point", "coordinates": [ -73.9620545, 40.7213763 ] } },
{ "type": "Feature", "properties": { "Name": "Franklin D. Roosevelt Four Freedoms State Park", "State": "New York", "Type": "NP" }, "geometry": { "type": "Point", "coordinates": [ -73.960524, 40.7506105 ] } },
{ "type": "Feature", "properties": { "Name": "Shirley Chisholm State Park", "State": "New York", "Type": "NP" }, "geometry": { "type": "Point", "coordinates": [ -73.8738655, 40.6403643 ] } },
{ "type": "Feature", "properties": { "Name": "Inwood Hill Park", "State": "New York", "Type": "NP" }, "geometry": { "type": "Point", "coordinates": [ -73.924776, 40.8721829 ] } },
{ "type": "Feature", "properties": { "Name": "Central Park", "State": "New York", "Type": "NP" }, "geometry": { "type": "Point", "coordinates": [ -73.9655834, 40.7825547 ] } },
{ "type": "Feature", "properties": { "Name": "Stonewall National Monument", "State": "New York", "Type": "NP" }, "geometry": { "type": "Point", "coordinates": [ -74.0023407, 40.733577800000013 ] } },
{ "type": "Feature", "properties": { "Name": "Robert F. Wagner Jr. Park", "State": "New York", "Type": "NP" }, "geometry": { "type": "Point", "coordinates": [ -74.0187626, 40.7052908 ] } },
{ "type": "Feature", "properties": { "Name": "Christopher Park", "State": "New York", "Type": "NP" }, "geometry": { "type": "Point", "coordinates": [ -74.0021239, 40.733637 ] } },
{ "type": "Feature", "properties": { "Name": "Hudson River Park", "State": "New York", "Type": "NP" }, "geometry": { "type": "Point", "coordinates": [ -74.009261, 40.7492961 ] } },
{ "type": "Feature", "properties": { "Name": "Hunter's Point South Park", "State": "New York", "Type": "NP" }, "geometry": { "type": "Point", "coordinates": [ -73.9606831, 40.7422936 ] } },
{ "type": "Feature", "properties": { "Name": "The Hills", "State": "New York", "Type": "NP" }, "geometry": { "type": "Point", "coordinates": [ -74.024449, 40.686940500000013 ] } },
{ "type": "Feature", "properties": { "Name": "Bella Abzug Park", "State": "New York", "Type": "NP" }, "geometry": { "type": "Point", "coordinates": [ -74.0005741, 40.7555735 ] } },
{ "type": "Feature", "properties": { "Name": "Thomas Paine Park", "State": "New York", "Type": "NP" }, "geometry": { "type": "Point", "coordinates": [ -74.0026617, 40.715032099999988 ] } },
{ "type": "Feature", "properties": { "Name": "Nolan Park", "State": "New York", "Type": "NP" }, "geometry": { "type": "Point", "coordinates": [ -74.0139821, 40.6899915 ] } },
{ "type": "Feature", "properties": { "Name": "The Battery", "State": "New York", "Type": "NP" }, "geometry": { "type": "Point", "coordinates": [ -74.0153603, 40.702931199999988 ] } },
{ "type": "Feature", "properties": { "Name": "Empire Fulton Ferry", "State": "New York", "Type": "NP" }, "geometry": { "type": "Point", "coordinates": [ -73.9932122, 40.7042545 ] } },
{ "type": "Feature", "properties": { "Name": "Columbus Park", "State": "New York", "Type": "NP" }, "geometry": { "type": "Point", "coordinates": [ -74.0000423, 40.7155504 ] } },
{ "type": "Feature", "properties": { "Name": "Joan of Arc Park", "State": "New York", "Type": "NP" }, "geometry": { "type": "Point", "coordinates": [ -73.9764257, 40.794717 ] } },
{ "type": "Feature", "properties": { "Name": "Raven Rock State Park", "State": "North Carolina", "Type": "NP" }, "geometry": { "type": "Point", "coordinates": [ -78.9135741, 35.4635101 ] } },
{ "type": "Feature", "properties": { "Name": "Eno River State Park", "State": "North Carolina", "Type": "NP" }, "geometry": { "type": "Point", "coordinates": [ -79.0052362, 36.0787264 ] } },
{ "type": "Feature", "properties": { "Name": "Mount Mitchell State Park", "State": "North Carolina", "Type": "NP" }, "geometry": { "type": "Point", "coordinates": [ -82.263367699999989, 35.7728376 ] } },
{ "type": "Feature", "properties": { "Name": "Jockey's Ridge State Park", "State": "North Carolina", "Type": "NP" }, "geometry": { "type": "Point", "coordinates": [ -75.6326293, 35.9637835 ] } },
{ "type": "Feature", "properties": { "Name": "South Mountains State Park", "State": "North Carolina", "Type": "NP" }, "geometry": { "type": "Point", "coordinates": [ -81.683024, 35.6115736 ] } },
{ "type": "Feature", "properties": { "Name": "Stone Mountain State Park", "State": "North Carolina", "Type": "NP" }, "geometry": { "type": "Point", "coordinates": [ -81.0224605, 36.3828761 ] } },
{ "type": "Feature", "properties": { "Name": "Goose Creek State Park", "State": "North Carolina", "Type": "NP" }, "geometry": { "type": "Point", "coordinates": [ -76.910534, 35.473571799999988 ] } },
{ "type": "Feature", "properties": { "Name": "Chimney Rock at Chimney Rock State Park", "State": "North Carolina", "Type": "NP" }, "geometry": { "type": "Point", "coordinates": [ -82.2503158, 35.4328067 ] } },
{ "type": "Feature", "properties": { "Name": "Gorges State Park", "State": "North Carolina", "Type": "NP" }, "geometry": { "type": "Point", "coordinates": [ -82.9506545, 35.0964141 ] } },
{ "type": "Feature", "properties": { "Name": "Moores Creek National Battlefield", "State": "North Carolina", "Type": "NP" }, "geometry": { "type": "Point", "coordinates": [ -78.1104428, 34.4581512 ] } },
{ "type": "Feature", "properties": { "Name": "Crowders Mountain State Park", "State": "North Carolina", "Type": "NP" }, "geometry": { "type": "Point", "coordinates": [ -81.3141461, 35.2015141 ] } },
{ "type": "Feature", "properties": { "Name": "Carolina Beach State Park", "State": "North Carolina", "Type": "NP" }, "geometry": { "type": "Point", "coordinates": [ -77.9138889, 34.045936 ] } },
{ "type": "Feature", "properties": { "Name": "Jones Lake State Park", "State": "North Carolina", "Type": "NP" }, "geometry": { "type": "Point", "coordinates": [ -78.5958905, 34.6831766 ] } },
{ "type": "Feature", "properties": { "Name": "Singletary Lake State Park", "State": "North Carolina", "Type": "NP" }, "geometry": { "type": "Point", "coordinates": [ -78.449884, 34.581262 ] } },
{ "type": "Feature", "properties": { "Name": "Kings Mountain State Park", "State": "North Carolina", "Type": "NP" }, "geometry": { "type": "Point", "coordinates": [ -81.3441702, 35.1506674 ] } },
{ "type": "Feature", "properties": { "Name": "Occoneechee Mountain State Natural Area", "State": "North Carolina", "Type": "NP" }, "geometry": { "type": "Point", "coordinates": [ -79.1171084, 36.0606205 ] } },
{ "type": "Feature", "properties": { "Name": "Carvers Creek State Park", "State": "North Carolina", "Type": "NP" }, "geometry": { "type": "Point", "coordinates": [ -78.9761271, 35.2023335 ] } },
{ "type": "Feature", "properties": { "Name": "Merchants Millpond State Park", "State": "North Carolina", "Type": "NP" }, "geometry": { "type": "Point", "coordinates": [ -76.6991524, 36.4372051 ] } },
{ "type": "Feature", "properties": { "Name": "Falls Lake State Recreation Area", "State": "North Carolina", "Type": "NP" }, "geometry": { "type": "Point", "coordinates": [ -78.6990695, 36.0306401 ] } },
{ "type": "Feature", "properties": { "Name": "Lake Waccamaw State Park", "State": "North Carolina", "Type": "NP" }, "geometry": { "type": "Point", "coordinates": [ -78.4657038, 34.2786001 ] } },
{ "type": "Feature", "properties": { "Name": "Theodore Roosevelt National Park", "State": "North Dakota", "Type": "NP" }, "geometry": { "type": "Point", "coordinates": [ -103.5387091, 46.978965 ] } },
{ "type": "Feature", "properties": { "Name": "Icelandic State Park", "State": "North Dakota", "Type": "NP" }, "geometry": { "type": "Point", "coordinates": [ -97.751319900000013, 48.7770583 ] } },
{ "type": "Feature", "properties": { "Name": "Fort Abraham Lincoln State Park", "State": "North Dakota", "Type": "NP" }, "geometry": { "type": "Point", "coordinates": [ -100.8478347, 46.7660582 ] } },
{ "type": "Feature", "properties": { "Name": "Theodore Roosevelt National Park, South Unit.", "State": "North Dakota", "Type": "NP" }, "geometry": { "type": "Point", "coordinates": [ -103.5264395, 46.9165657 ] } },
{ "type": "Feature", "properties": { "Name": "Turtle Mountain State Forest", "State": "North Dakota", "Type": "NP" }, "geometry": { "type": "Point", "coordinates": [ -100.5144853, 48.950620699999988 ] } },
{ "type": "Feature", "properties": { "Name": "Lake Sakakawea State Park", "State": "North Dakota", "Type": "NP" }, "geometry": { "type": "Point", "coordinates": [ -101.4480771, 47.5288277 ] } },
{ "type": "Feature", "properties": { "Name": "Sully Creek State Park", "State": "North Dakota", "Type": "NP" }, "geometry": { "type": "Point", "coordinates": [ -103.5382537, 46.892634 ] } },
{ "type": "Feature", "properties": { "Name": "Lewis and Clark State Park", "State": "North Dakota", "Type": "NP" }, "geometry": { "type": "Point", "coordinates": [ -103.2314783, 48.1256443 ] } },
{ "type": "Feature", "properties": { "Name": "Beaver Lake State Park", "State": "North Dakota", "Type": "NP" }, "geometry": { "type": "Point", "coordinates": [ -99.6153604, 46.3994718 ] } },
{ "type": "Feature", "properties": { "Name": "Fort Stevenson State Park", "State": "North Dakota", "Type": "NP" }, "geometry": { "type": "Point", "coordinates": [ -101.4219511, 47.5941582 ] } },
{ "type": "Feature", "properties": { "Name": "Turtle River State Park", "State": "North Dakota", "Type": "NP" }, "geometry": { "type": "Point", "coordinates": [ -97.4929038, 47.9392079 ] } },
{ "type": "Feature", "properties": { "Name": "Little Missouri State Park", "State": "North Dakota", "Type": "NP" }, "geometry": { "type": "Point", "coordinates": [ -102.736135, 47.5459672 ] } },
{ "type": "Feature", "properties": { "Name": "Cuyahoga Valley National Park", "State": "Ohio", "Type": "NP" }, "geometry": { "type": "Point", "coordinates": [ -81.567812, 41.2808248 ] } },
{ "type": "Feature", "properties": { "Name": "Hocking Hills State Park", "State": "Ohio", "Type": "NP" }, "geometry": { "type": "Point", "coordinates": [ -82.5482126, 39.4334877 ] } },
{ "type": "Feature", "properties": { "Name": "John Bryan State Park", "State": "Ohio", "Type": "NP" }, "geometry": { "type": "Point", "coordinates": [ -83.853929, 39.7892138 ] } },
{ "type": "Feature", "properties": { "Name": "Caesar Creek State Park", "State": "Ohio", "Type": "NP" }, "geometry": { "type": "Point", "coordinates": [ -84.0244673, 39.5189564 ] } },
{ "type": "Feature", "properties": { "Name": "East Harbor State Park", "State": "Ohio", "Type": "NP" }, "geometry": { "type": "Point", "coordinates": [ -82.8203006, 41.5446276 ] } },
{ "type": "Feature", "properties": { "Name": "Indian Lake State Park", "State": "Ohio", "Type": "NP" }, "geometry": { "type": "Point", "coordinates": [ -83.8984091, 40.513810199999988 ] } },
{ "type": "Feature", "properties": { "Name": "Mohican State Park", "State": "Ohio", "Type": "NP" }, "geometry": { "type": "Point", "coordinates": [ -82.2653436, 40.610189899999988 ] } },
{ "type": "Feature", "properties": { "Name": "Deer Creek State Park", "State": "Ohio", "Type": "NP" }, "geometry": { "type": "Point", "coordinates": [ -83.2509819, 39.6300567 ] } },
{ "type": "Feature", "properties": { "Name": "Burr Oak State Park", "State": "Ohio", "Type": "NP" }, "geometry": { "type": "Point", "coordinates": [ -82.0351518, 39.5308073 ] } },
{ "type": "Feature", "properties": { "Name": "Mt. Gilead State Park", "State": "Ohio", "Type": "NP" }, "geometry": { "type": "Point", "coordinates": [ -82.8102734, 40.5474104 ] } },
{ "type": "Feature", "properties": { "Name": "Chickasaw National Recreation Area", "State": "Oklahoma", "Type": "NP" }, "geometry": { "type": "Point", "coordinates": [ -97.0066515, 34.4611597 ] } },
{ "type": "Feature", "properties": { "Name": "Keystone State Park", "State": "Oklahoma", "Type": "NP" }, "geometry": { "type": "Point", "coordinates": [ -96.263324400000016, 36.1369313 ] } },
{ "type": "Feature", "properties": { "Name": "Quartz Mountain State Park", "State": "Oklahoma", "Type": "NP" }, "geometry": { "type": "Point", "coordinates": [ -99.3065166, 34.8852947 ] } },
{ "type": "Feature", "properties": { "Name": "Black Mesa State Park & Nature Preserve", "State": "Oklahoma", "Type": "NP" }, "geometry": { "type": "Point", "coordinates": [ -102.8822268, 36.8403539 ] } },
{ "type": "Feature", "properties": { "Name": "Lake Thunderbird State Park", "State": "Oklahoma", "Type": "NP" }, "geometry": { "type": "Point", "coordinates": [ -97.2518004, 35.236407500000013 ] } },
{ "type": "Feature", "properties": { "Name": "Beavers Bend State Park and Nature Center", "State": "Oklahoma", "Type": "NP" }, "geometry": { "type": "Point", "coordinates": [ -94.6803052, 34.1326751 ] } },
{ "type": "Feature", "properties": { "Name": "Foss State Park", "State": "Oklahoma", "Type": "NP" }, "geometry": { "type": "Point", "coordinates": [ -99.1865326, 35.5300223 ] } },
{ "type": "Feature", "properties": { "Name": "Lake Eufaula State Park", "State": "Oklahoma", "Type": "NP" }, "geometry": { "type": "Point", "coordinates": [ -95.6051879, 35.4000907 ] } },
{ "type": "Feature", "properties": { "Name": "Gloss Mountain State Park", "State": "Oklahoma", "Type": "NP" }, "geometry": { "type": "Point", "coordinates": [ -98.5803575, 36.3630931 ] } },
{ "type": "Feature", "properties": { "Name": "Great Plains State Park", "State": "Oklahoma", "Type": "NP" }, "geometry": { "type": "Point", "coordinates": [ -98.9681519, 34.7456577 ] } },
{ "type": "Feature", "properties": { "Name": "Martin Park Nature Center", "State": "Oklahoma", "Type": "NP" }, "geometry": { "type": "Point", "coordinates": [ -97.609632499999989, 35.6075225 ] } },
{ "type": "Feature", "properties": { "Name": "Fort Cobb State Park", "State": "Oklahoma", "Type": "NP" }, "geometry": { "type": "Point", "coordinates": [ -98.4402815, 35.1738602 ] } },
{ "type": "Feature", "properties": { "Name": "Lake Thunderbird State Park-Little Axe Area", "State": "Oklahoma", "Type": "NP" }, "geometry": { "type": "Point", "coordinates": [ -97.220772, 35.2314005 ] } },
{ "type": "Feature", "properties": { "Name": "Natural Falls State Park", "State": "Oklahoma", "Type": "NP" }, "geometry": { "type": "Point", "coordinates": [ -94.6682565, 36.1733349 ] } },
{ "type": "Feature", "properties": { "Name": "State Parks", "State": "Oklahoma", "Type": "NP" }, "geometry": { "type": "Point", "coordinates": [ -96.3071559, 34.3195923 ] } },
{ "type": "Feature", "properties": { "Name": "Beavers Bend Nature Center", "State": "Oklahoma", "Type": "NP" }, "geometry": { "type": "Point", "coordinates": [ -94.6781232, 34.1319677 ] } },
{ "type": "Feature", "properties": { "Name": "Lake Thunderbird State Park East Sentinel Area", "State": "Oklahoma", "Type": "NP" }, "geometry": { "type": "Point", "coordinates": [ -97.2986636, 35.2303697 ] } },
{ "type": "Feature", "properties": { "Name": "Little Niagara Falls", "State": "Oklahoma", "Type": "NP" }, "geometry": { "type": "Point", "coordinates": [ -96.951722, 34.5051981 ] } },
{ "type": "Feature", "properties": { "Name": "Tenkiller State Park", "State": "Oklahoma", "Type": "NP" }, "geometry": { "type": "Point", "coordinates": [ -95.0357981, 35.6016843 ] } },
{ "type": "Feature", "properties": { "Name": "Scissortail Trail Nature Preserve", "State": "Oklahoma", "Type": "NP" }, "geometry": { "type": "Point", "coordinates": [ -97.4120087, 35.4172718 ] } },
{ "type": "Feature", "properties": { "Name": "Crater Lake National Park", "State": "Oregon", "Type": "NP" }, "geometry": { "type": "Point", "coordinates": [ -122.1279394, 42.9294762 ] } },
{ "type": "Feature", "properties": { "Name": "Smith Rock State Park", "State": "Oregon", "Type": "NP" }, "geometry": { "type": "Point", "coordinates": [ -121.1405814, 44.3682459 ] } },
{ "type": "Feature", "properties": { "Name": "Fort Stevens State Park", "State": "Oregon", "Type": "NP" }, "geometry": { "type": "Point", "coordinates": [ -123.9790652, 46.1993713 ] } },
{ "type": "Feature", "properties": { "Name": "Silver Falls State Park", "State": "Oregon", "Type": "NP" }, "geometry": { "type": "Point", "coordinates": [ -122.6262228, 44.8652189 ] } },
{ "type": "Feature", "properties": { "Name": "Deschutes National Forest", "State": "Oregon", "Type": "NP" }, "geometry": { "type": "Point", "coordinates": [ -121.6031176, 43.888946399999988 ] } },
{ "type": "Feature", "properties": { "Name": "Oregon Dunes National Recreation Area Siuslaw National Forest", "State": "Oregon", "Type": "NP" }, "geometry": { "type": "Point", "coordinates": [ -124.1059618, 43.7035323 ] } },
{ "type": "Feature", "properties": { "Name": "John Day Fossil Beds National Monument", "State": "Oregon", "Type": "NP" }, "geometry": { "type": "Point", "coordinates": [ -120.2390749, 44.6345682 ] } },
{ "type": "Feature", "properties": { "Name": "Valley of the Rogue State Park", "State": "Oregon", "Type": "NP" }, "geometry": { "type": "Point", "coordinates": [ -123.137193, 42.4078319 ] } },
{ "type": "Feature", "properties": { "Name": "Oregon State Capitol State Park", "State": "Oregon", "Type": "NP" }, "geometry": { "type": "Point", "coordinates": [ -123.029573, 44.940255 ] } },
{ "type": "Feature", "properties": { "Name": "Collier Memorial State Park", "State": "Oregon", "Type": "NP" }, "geometry": { "type": "Point", "coordinates": [ -121.8731437, 42.64276 ] } },
{ "type": "Feature", "properties": { "Name": "Tumalo State Park", "State": "Oregon", "Type": "NP" }, "geometry": { "type": "Point", "coordinates": [ -121.3274044, 44.1286879 ] } },
{ "type": "Feature", "properties": { "Name": "Cascadia County Park", "State": "Oregon", "Type": "NP" }, "geometry": { "type": "Point", "coordinates": [ -122.4745419, 44.3991774 ] } },
{ "type": "Feature", "properties": { "Name": "Cline Falls State Scenic Viewpoint", "State": "Oregon", "Type": "NP" }, "geometry": { "type": "Point", "coordinates": [ -121.2558908, 44.2685042 ] } },
{ "type": "Feature", "properties": { "Name": "Emigrant Springs State Heritage Area", "State": "Oregon", "Type": "NP" }, "geometry": { "type": "Point", "coordinates": [ -118.4652504, 45.541135399999987 ] } },
{ "type": "Feature", "properties": { "Name": "Oregon State Capitol State Park", "State": "Oregon", "Type": "NP" }, "geometry": { "type": "Point", "coordinates": [ -123.0281814, 44.9451184 ] } },
{ "type": "Feature", "properties": { "Name": "Cottonwood Canyon State Park", "State": "Oregon", "Type": "NP" }, "geometry": { "type": "Point", "coordinates": [ -120.4180865, 45.457591699999988 ] } },
{ "type": "Feature", "properties": { "Name": "Nehalem Bay State Park", "State": "Oregon", "Type": "NP" }, "geometry": { "type": "Point", "coordinates": [ -123.9366983, 45.685027 ] } },
{ "type": "Feature", "properties": { "Name": "Mayer State Park", "State": "Oregon", "Type": "NP" }, "geometry": { "type": "Point", "coordinates": [ -121.279122, 45.67703 ] } },
{ "type": "Feature", "properties": { "Name": "The Cove Palisades State Park", "State": "Oregon", "Type": "NP" }, "geometry": { "type": "Point", "coordinates": [ -121.275071, 44.542893 ] } },
{ "type": "Feature", "properties": { "Name": "Memaloose State Park", "State": "Oregon", "Type": "NP" }, "geometry": { "type": "Point", "coordinates": [ -121.3383419, 45.695400199999987 ] } },
{ "type": "Feature", "properties": { "Name": "Big Spring State Park", "State": "Pennsylvania", "Type": "NP" }, "geometry": { "type": "Point", "coordinates": [ -77.6589895, 40.2631365 ] } },
{ "type": "Feature", "properties": { "Name": "Cherry Springs State Park", "State": "Pennsylvania", "Type": "NP" }, "geometry": { "type": "Point", "coordinates": [ -77.8234031, 41.6632215 ] } },
{ "type": "Feature", "properties": { "Name": "Delaware Water Gap National Recreation Area", "State": "Pennsylvania", "Type": "NP" }, "geometry": { "type": "Point", "coordinates": [ -74.9442586, 41.1043946 ] } },
{ "type": "Feature", "properties": { "Name": "Ohiopyle State Park", "State": "Pennsylvania", "Type": "NP" }, "geometry": { "type": "Point", "coordinates": [ -79.4942011, 39.868022 ] } },
{ "type": "Feature", "properties": { "Name": "Cowans Gap State Park", "State": "Pennsylvania", "Type": "NP" }, "geometry": { "type": "Point", "coordinates": [ -77.9215615, 39.9990621 ] } },
{ "type": "Feature", "properties": { "Name": "Caledonia State Park", "State": "Pennsylvania", "Type": "NP" }, "geometry": { "type": "Point", "coordinates": [ -77.4800529, 39.9114255 ] } },
{ "type": "Feature", "properties": { "Name": "Ricketts Glen State Park", "State": "Pennsylvania", "Type": "NP" }, "geometry": { "type": "Point", "coordinates": [ -76.3014359, 41.3353698 ] } },
{ "type": "Feature", "properties": { "Name": "Big Pocono State Park", "State": "Pennsylvania", "Type": "NP" }, "geometry": { "type": "Point", "coordinates": [ -75.3515671, 41.0420768 ] } },
{ "type": "Feature", "properties": { "Name": "Hyner View State Park", "State": "Pennsylvania", "Type": "NP" }, "geometry": { "type": "Point", "coordinates": [ -77.6236368, 41.3266425 ] } },
{ "type": "Feature", "properties": { "Name": "Worlds End State Park", "State": "Pennsylvania", "Type": "NP" }, "geometry": { "type": "Point", "coordinates": [ -76.5753685, 41.4666991 ] } },
{ "type": "Feature", "properties": { "Name": "Hickory Run State Park", "State": "Pennsylvania", "Type": "NP" }, "geometry": { "type": "Point", "coordinates": [ -75.7094924, 41.0246709 ] } },
{ "type": "Feature", "properties": { "Name": "Colton Point State Park", "State": "Pennsylvania", "Type": "NP" }, "geometry": { "type": "Point", "coordinates": [ -77.466497, 41.706522 ] } },
{ "type": "Feature", "properties": { "Name": "Nockamixon State Park", "State": "Pennsylvania", "Type": "NP" }, "geometry": { "type": "Point", "coordinates": [ -75.2349338, 40.4517265 ] } },
{ "type": "Feature", "properties": { "Name": "Hills Creek State Park", "State": "Pennsylvania", "Type": "NP" }, "geometry": { "type": "Point", "coordinates": [ -77.1967886, 41.8076645 ] } },
{ "type": "Feature", "properties": { "Name": "Codorus State Park", "State": "Pennsylvania", "Type": "NP" }, "geometry": { "type": "Point", "coordinates": [ -76.9180445, 39.7904785 ] } },
{ "type": "Feature", "properties": { "Name": "Elk State Forest", "State": "Pennsylvania", "Type": "NP" }, "geometry": { "type": "Point", "coordinates": [ -78.0880129, 41.4387655 ] } },
{ "type": "Feature", "properties": { "Name": "Milton State Park", "State": "Pennsylvania", "Type": "NP" }, "geometry": { "type": "Point", "coordinates": [ -76.8605025, 41.0181003 ] } },
{ "type": "Feature", "properties": { "Name": "Marsh Creek State Park", "State": "Pennsylvania", "Type": "NP" }, "geometry": { "type": "Point", "coordinates": [ -75.7197565, 40.0691776 ] } },
{ "type": "Feature", "properties": { "Name": "Hyner Run State Park", "State": "Pennsylvania", "Type": "NP" }, "geometry": { "type": "Point", "coordinates": [ -77.6255541, 41.3602283 ] } },
{ "type": "Feature", "properties": { "Name": "Lehigh Gorge State Park, Jim Thorpe Entrance", "State": "Pennsylvania", "Type": "NP" }, "geometry": { "type": "Point", "coordinates": [ -75.7405538, 40.8743486 ] } },
{ "type": "Feature", "properties": { "Name": "Fort Adams State Park", "State": "Rhode Island", "Type": "NP" }, "geometry": { "type": "Point", "coordinates": [ -71.3358244, 41.4790898 ] } },
{ "type": "Feature", "properties": { "Name": "Lincoln Woods State Park", "State": "Rhode Island", "Type": "NP" }, "geometry": { "type": "Point", "coordinates": [ -71.4329048, 41.897531099999988 ] } },
{ "type": "Feature", "properties": { "Name": "Beavertail State Park", "State": "Rhode Island", "Type": "NP" }, "geometry": { "type": "Point", "coordinates": [ -71.3975929, 41.4535106 ] } },
{ "type": "Feature", "properties": { "Name": "Fort Wetherill State Park", "State": "Rhode Island", "Type": "NP" }, "geometry": { "type": "Point", "coordinates": [ -71.3584623, 41.4778494 ] } },
{ "type": "Feature", "properties": { "Name": "Rocky Point State Park", "State": "Rhode Island", "Type": "NP" }, "geometry": { "type": "Point", "coordinates": [ -71.366956, 41.690501 ] } },
{ "type": "Feature", "properties": { "Name": "Goddard Memorial State Park", "State": "Rhode Island", "Type": "NP" }, "geometry": { "type": "Point", "coordinates": [ -71.4358095, 41.6573476 ] } },
{ "type": "Feature", "properties": { "Name": "Haines Memorial State Park", "State": "Rhode Island", "Type": "NP" }, "geometry": { "type": "Point", "coordinates": [ -71.3462655, 41.7536989 ] } },
{ "type": "Feature", "properties": { "Name": "Snake Den State Park", "State": "Rhode Island", "Type": "NP" }, "geometry": { "type": "Point", "coordinates": [ -71.5369273, 41.8395826 ] } },
{ "type": "Feature", "properties": { "Name": "Colt State Park", "State": "Rhode Island", "Type": "NP" }, "geometry": { "type": "Point", "coordinates": [ -71.2985319, 41.6769145 ] } },
{ "type": "Feature", "properties": { "Name": "Brenton Point State Park", "State": "Rhode Island", "Type": "NP" }, "geometry": { "type": "Point", "coordinates": [ -71.3543688, 41.4526568 ] } },
{ "type": "Feature", "properties": { "Name": "Roger Williams National Memorial", "State": "Rhode Island", "Type": "NP" }, "geometry": { "type": "Point", "coordinates": [ -71.4107403, 41.8313318 ] } },
{ "type": "Feature", "properties": { "Name": "Burlingame State Park", "State": "Rhode Island", "Type": "NP" }, "geometry": { "type": "Point", "coordinates": [ -71.7094505, 41.3822372 ] } },
{ "type": "Feature", "properties": { "Name": "Rhode Island Desert", "State": "Rhode Island", "Type": "NP" }, "geometry": { "type": "Point", "coordinates": [ -71.589264, 41.6469728 ] } },
{ "type": "Feature", "properties": { "Name": "Pulaski State Park and Recreational Area", "State": "Rhode Island", "Type": "NP" }, "geometry": { "type": "Point", "coordinates": [ -71.795509, 41.927058 ] } },
{ "type": "Feature", "properties": { "Name": "John L. Curran State Park", "State": "Rhode Island", "Type": "NP" }, "geometry": { "type": "Point", "coordinates": [ -71.5442049, 41.7490442 ] } },
{ "type": "Feature", "properties": { "Name": "Blackstone River State Park", "State": "Rhode Island", "Type": "NP" }, "geometry": { "type": "Point", "coordinates": [ -71.4342913, 41.9379322 ] } },
{ "type": "Feature", "properties": { "Name": "Arcadia Management Area", "State": "Rhode Island", "Type": "NP" }, "geometry": { "type": "Point", "coordinates": [ -71.6953629, 41.546709 ] } },
{ "type": "Feature", "properties": { "Name": "Lincoln Woods State Park Beach", "State": "Rhode Island", "Type": "NP" }, "geometry": { "type": "Point", "coordinates": [ -71.4364544, 41.8890048 ] } },
{ "type": "Feature", "properties": { "Name": "Haines Memorial Park", "State": "Rhode Island", "Type": "NP" }, "geometry": { "type": "Point", "coordinates": [ -71.3508951, 41.753799099999988 ] } },
{ "type": "Feature", "properties": { "Name": "Fishermen's Memorial State Park and Campground", "State": "Rhode Island", "Type": "NP" }, "geometry": { "type": "Point", "coordinates": [ -71.4915586, 41.3795381 ] } },
{ "type": "Feature", "properties": { "Name": "Congaree National Park", "State": "South Carolina", "Type": "NP" }, "geometry": { "type": "Point", "coordinates": [ -80.7490486, 33.7918719 ] } },
{ "type": "Feature", "properties": { "Name": "Kings Mountain State Park", "State": "South Carolina", "Type": "NP" }, "geometry": { "type": "Point", "coordinates": [ -81.3441702, 35.1506674 ] } },
{ "type": "Feature", "properties": { "Name": "Hunting Island State Park", "State": "South Carolina", "Type": "NP" }, "geometry": { "type": "Point", "coordinates": [ -80.4463489, 32.3737302 ] } },
{ "type": "Feature", "properties": { "Name": "Jones Gap State Park", "State": "South Carolina", "Type": "NP" }, "geometry": { "type": "Point", "coordinates": [ -82.5782661, 35.1250793 ] } },
{ "type": "Feature", "properties": { "Name": "Andrew Jackson State Park", "State": "South Carolina", "Type": "NP" }, "geometry": { "type": "Point", "coordinates": [ -80.8101342, 34.8427585 ] } },
{ "type": "Feature", "properties": { "Name": "Baker Creek State Park", "State": "South Carolina", "Type": "NP" }, "geometry": { "type": "Point", "coordinates": [ -82.3593464, 33.882890499999988 ] } },
{ "type": "Feature", "properties": { "Name": "Paris Mountain State Park", "State": "South Carolina", "Type": "NP" }, "geometry": { "type": "Point", "coordinates": [ -82.3699995, 34.9273279 ] } },
{ "type": "Feature", "properties": { "Name": "Oconee State Park", "State": "South Carolina", "Type": "NP" }, "geometry": { "type": "Point", "coordinates": [ -83.1055466, 34.8686417 ] } },
{ "type": "Feature", "properties": { "Name": "Calhoun Falls State Park", "State": "South Carolina", "Type": "NP" }, "geometry": { "type": "Point", "coordinates": [ -82.6202457, 34.1069822 ] } },
{ "type": "Feature", "properties": { "Name": "Kings Mountain National Military Park", "State": "South Carolina", "Type": "NP" }, "geometry": { "type": "Point", "coordinates": [ -81.3911074, 35.1385001 ] } },
{ "type": "Feature", "properties": { "Name": "Poinsett State Park", "State": "South Carolina", "Type": "NP" }, "geometry": { "type": "Point", "coordinates": [ -80.5482823, 33.8044625 ] } },
{ "type": "Feature", "properties": { "Name": "Aiken State Park", "State": "South Carolina", "Type": "NP" }, "geometry": { "type": "Point", "coordinates": [ -81.4903653, 33.5510659 ] } },
{ "type": "Feature", "properties": { "Name": "Sesquicentennial State Park", "State": "South Carolina", "Type": "NP" }, "geometry": { "type": "Point", "coordinates": [ -80.9063368, 34.0869602 ] } },
{ "type": "Feature", "properties": { "Name": "Givhans Ferry State Park", "State": "South Carolina", "Type": "NP" }, "geometry": { "type": "Point", "coordinates": [ -80.386448, 33.027807 ] } },
{ "type": "Feature", "properties": { "Name": "Santee State Park", "State": "South Carolina", "Type": "NP" }, "geometry": { "type": "Point", "coordinates": [ -80.4883502, 33.5187611 ] } },
{ "type": "Feature", "properties": { "Name": "Colleton State Park", "State": "South Carolina", "Type": "NP" }, "geometry": { "type": "Point", "coordinates": [ -80.6159494, 33.062497 ] } },
{ "type": "Feature", "properties": { "Name": "Hamilton Branch State Park", "State": "South Carolina", "Type": "NP" }, "geometry": { "type": "Point", "coordinates": [ -82.2037244, 33.7541816 ] } },
{ "type": "Feature", "properties": { "Name": "Sadlers Creek State Park", "State": "South Carolina", "Type": "NP" }, "geometry": { "type": "Point", "coordinates": [ -82.8248548, 34.4236291 ] } },
{ "type": "Feature", "properties": { "Name": "Manchester State Forest", "State": "South Carolina", "Type": "NP" }, "geometry": { "type": "Point", "coordinates": [ -80.5346118, 33.8236621 ] } },
{ "type": "Feature", "properties": { "Name": "Lee State Park", "State": "South Carolina", "Type": "NP" }, "geometry": { "type": "Point", "coordinates": [ -80.1953976, 34.2067255 ] } },
{ "type": "Feature", "properties": { "Name": "Palisades State Park", "State": "South Dakota", "Type": "NP" }, "geometry": { "type": "Point", "coordinates": [ -96.5126387, 43.6907022 ] } },
{ "type": "Feature", "properties": { "Name": "Wind Cave National Park", "State": "South Dakota", "Type": "NP" }, "geometry": { "type": "Point", "coordinates": [ -103.4415644, 43.5724388 ] } },
{ "type": "Feature", "properties": { "Name": "Badlands National Park", "State": "South Dakota", "Type": "NP" }, "geometry": { "type": "Point", "coordinates": [ -102.3396912, 43.8553804 ] } },
{ "type": "Feature", "properties": { "Name": "Custer State Park", "State": "South Dakota", "Type": "NP" }, "geometry": { "type": "Point", "coordinates": [ -103.4133335, 43.7325177 ] } },
{ "type": "Feature", "properties": { "Name": "Black Hills National Forest", "State": "South Dakota", "Type": "NP" }, "geometry": { "type": "Point", "coordinates": [ -103.8564085, 44.014044299999988 ] } },
{ "type": "Feature", "properties": { "Name": "Custer State Park", "State": "South Dakota", "Type": "NP" }, "geometry": { "type": "Point", "coordinates": [ -103.3730743, 43.7651092 ] } },
{ "type": "Feature", "properties": { "Name": "Newton Hills State Park", "State": "South Dakota", "Type": "NP" }, "geometry": { "type": "Point", "coordinates": [ -96.56922010000001, 43.2188779 ] } },
{ "type": "Feature", "properties": { "Name": "Mount Rushmore National Memorial", "State": "South Dakota", "Type": "NP" }, "geometry": { "type": "Point", "coordinates": [ -103.4537746, 43.8803357 ] } },
{ "type": "Feature", "properties": { "Name": "Dakota Nature Park", "State": "South Dakota", "Type": "NP" }, "geometry": { "type": "Point", "coordinates": [ -96.7764898, 44.2697389 ] } },
{ "type": "Feature", "properties": { "Name": "Hartford Beach State Park", "State": "South Dakota", "Type": "NP" }, "geometry": { "type": "Point", "coordinates": [ -96.6728973, 45.3994352 ] } },
{ "type": "Feature", "properties": { "Name": "Bear Butte State Park", "State": "South Dakota", "Type": "NP" }, "geometry": { "type": "Point", "coordinates": [ -103.4243089, 44.4752951 ] } },
{ "type": "Feature", "properties": { "Name": "Black Hills National Forest", "State": "South Dakota", "Type": "NP" }, "geometry": { "type": "Point", "coordinates": [ -103.5115163, 43.8758346 ] } },
{ "type": "Feature", "properties": { "Name": "Oakwood Lakes State Park", "State": "South Dakota", "Type": "NP" }, "geometry": { "type": "Point", "coordinates": [ -96.982102, 44.4498981 ] } },
{ "type": "Feature", "properties": { "Name": "Good Earth State Park", "State": "South Dakota", "Type": "NP" }, "geometry": { "type": "Point", "coordinates": [ -96.5944263, 43.4771268 ] } },
{ "type": "Feature", "properties": { "Name": "Adams Homestead and State Nature Preserve", "State": "South Dakota", "Type": "NP" }, "geometry": { "type": "Point", "coordinates": [ -96.5351752, 42.5302028 ] } },
{ "type": "Feature", "properties": { "Name": "Welcome to Custer State Park Sign", "State": "South Dakota", "Type": "NP" }, "geometry": { "type": "Point", "coordinates": [ -103.3398526, 43.7725531 ] } },
{ "type": "Feature", "properties": { "Name": "Grizzly Bear Falls", "State": "South Dakota", "Type": "NP" }, "geometry": { "type": "Point", "coordinates": [ -103.4637975, 43.8638732 ] } },
{ "type": "Feature", "properties": { "Name": "Sica Hollow State Park", "State": "South Dakota", "Type": "NP" }, "geometry": { "type": "Point", "coordinates": [ -97.2313373, 45.7395097 ] } },
{ "type": "Feature", "properties": { "Name": "Jewel Cave National Monument", "State": "South Dakota", "Type": "NP" }, "geometry": { "type": "Point", "coordinates": [ -103.8299939, 43.731028300000013 ] } },
{ "type": "Feature", "properties": { "Name": "Lake Herman State Park", "State": "South Dakota", "Type": "NP" }, "geometry": { "type": "Point", "coordinates": [ -97.165109, 43.991709 ] } },
{ "type": "Feature", "properties": { "Name": "Nathan Bedford Forrest State Park", "State": "Tennessee", "Type": "NP" }, "geometry": { "type": "Point", "coordinates": [ -87.9854818, 36.0833038 ] } },
{ "type": "Feature", "properties": { "Name": "Cummins Falls State Park", "State": "Tennessee", "Type": "NP" }, "geometry": { "type": "Point", "coordinates": [ -85.5653132, 36.253694 ] } },
{ "type": "Feature", "properties": { "Name": "Fall Creek Falls State Park", "State": "Tennessee", "Type": "NP" }, "geometry": { "type": "Point", "coordinates": [ -85.3559878, 35.6549779 ] } },
{ "type": "Feature", "properties": { "Name": "Old Stone Fort State Archaeological Park", "State": "Tennessee", "Type": "NP" }, "geometry": { "type": "Point", "coordinates": [ -86.1026944, 35.4862509 ] } },
{ "type": "Feature", "properties": { "Name": "Cumberland Mountain State Park", "State": "Tennessee", "Type": "NP" }, "geometry": { "type": "Point", "coordinates": [ -84.9978771, 35.9010334 ] } },
{ "type": "Feature", "properties": { "Name": "David Crockett State Park", "State": "Tennessee", "Type": "NP" }, "geometry": { "type": "Point", "coordinates": [ -87.3587384, 35.2547971 ] } },
{ "type": "Feature", "properties": { "Name": "Pinson Mounds State Archaeological Park", "State": "Tennessee", "Type": "NP" }, "geometry": { "type": "Point", "coordinates": [ -88.6866015, 35.4955608 ] } },
{ "type": "Feature", "properties": { "Name": "Long Hunter State Park", "State": "Tennessee", "Type": "NP" }, "geometry": { "type": "Point", "coordinates": [ -86.5558534, 36.0925992 ] } },
{ "type": "Feature", "properties": { "Name": "Burgess Falls State Park", "State": "Tennessee", "Type": "NP" }, "geometry": { "type": "Point", "coordinates": [ -85.5960785, 36.0449134 ] } },
{ "type": "Feature", "properties": { "Name": "Rock Island State Park", "State": "Tennessee", "Type": "NP" }, "geometry": { "type": "Point", "coordinates": [ -85.6418257, 35.8103936 ] } },
{ "type": "Feature", "properties": { "Name": "Big Cypress Tree State Park", "State": "Tennessee", "Type": "NP" }, "geometry": { "type": "Point", "coordinates": [ -88.889877, 36.2023487 ] } },
{ "type": "Feature", "properties": { "Name": "Harrison Bay State Park", "State": "Tennessee", "Type": "NP" }, "geometry": { "type": "Point", "coordinates": [ -85.1210897, 35.1685004 ] } },
{ "type": "Feature", "properties": { "Name": "Radnor Lake State Park", "State": "Tennessee", "Type": "NP" }, "geometry": { "type": "Point", "coordinates": [ -86.8096497, 36.0630891 ] } },
{ "type": "Feature", "properties": { "Name": "South Cumberland State Park", "State": "Tennessee", "Type": "NP" }, "geometry": { "type": "Point", "coordinates": [ -85.7888721, 35.257525 ] } },
{ "type": "Feature", "properties": { "Name": "Justin P. Wilson Cumberland Trail State Park - Main Office", "State": "Tennessee", "Type": "NP" }, "geometry": { "type": "Point", "coordinates": [ -85.009378, 35.7932437 ] } },
{ "type": "Feature", "properties": { "Name": "Paris Landing State Park", "State": "Tennessee", "Type": "NP" }, "geometry": { "type": "Point", "coordinates": [ -88.0864294, 36.434078 ] } },
{ "type": "Feature", "properties": { "Name": "Red Clay State Historic Park", "State": "Tennessee", "Type": "NP" }, "geometry": { "type": "Point", "coordinates": [ -84.9459584, 34.9944461 ] } },
{ "type": "Feature", "properties": { "Name": "Cedars of Lebanon State Park", "State": "Tennessee", "Type": "NP" }, "geometry": { "type": "Point", "coordinates": [ -86.3191532, 36.0831487 ] } },
{ "type": "Feature", "properties": { "Name": "Dunbar Cave State Park", "State": "Tennessee", "Type": "NP" }, "geometry": { "type": "Point", "coordinates": [ -87.3039441, 36.5559294 ] } },
{ "type": "Feature", "properties": { "Name": "Edgar Evins State Park", "State": "Tennessee", "Type": "NP" }, "geometry": { "type": "Point", "coordinates": [ -85.8130553, 36.087836800000012 ] } },
{ "type": "Feature", "properties": { "Name": "Brazos Bend State Park", "State": "Texas", "Type": "NP" }, "geometry": { "type": "Point", "coordinates": [ -95.631920799999989, 29.3709621 ] } },
{ "type": "Feature", "properties": { "Name": "Stephen F. Austin State Park", "State": "Texas", "Type": "NP" }, "geometry": { "type": "Point", "coordinates": [ -96.1129908, 29.8180957 ] } },
{ "type": "Feature", "properties": { "Name": "Sheldon Lake State Park & Environmental Learning Center", "State": "Texas", "Type": "NP" }, "geometry": { "type": "Point", "coordinates": [ -95.1602288, 29.8577675 ] } },
{ "type": "Feature", "properties": { "Name": "Lake Houston Wilderness Park", "State": "Texas", "Type": "NP" }, "geometry": { "type": "Point", "coordinates": [ -95.1684711, 30.1466578 ] } },
{ "type": "Feature", "properties": { "Name": "Bastrop State Park", "State": "Texas", "Type": "NP" }, "geometry": { "type": "Point", "coordinates": [ -97.2869238, 30.110208 ] } },
{ "type": "Feature", "properties": { "Name": "Huntsville State Park", "State": "Texas", "Type": "NP" }, "geometry": { "type": "Point", "coordinates": [ -95.5223628, 30.6209038 ] } },
{ "type": "Feature", "properties": { "Name": "Lake Livingston State Park", "State": "Texas", "Type": "NP" }, "geometry": { "type": "Point", "coordinates": [ -95.002948, 30.664731 ] } },
{ "type": "Feature", "properties": { "Name": "Longhorn Cavern State Park", "State": "Texas", "Type": "NP" }, "geometry": { "type": "Point", "coordinates": [ -98.3523472, 30.6838595 ] } },
{ "type": "Feature", "properties": { "Name": "Lake Somerville State Park & Trailway", "State": "Texas", "Type": "NP" }, "geometry": { "type": "Point", "coordinates": [ -96.6632708, 30.3109153 ] } },
{ "type": "Feature", "properties": { "Name": "W G Jones State Forest", "State": "Texas", "Type": "NP" }, "geometry": { "type": "Point", "coordinates": [ -95.4828809, 30.2351288 ] } },
{ "type": "Feature", "properties": { "Name": "McKinney Falls State Park", "State": "Texas", "Type": "NP" }, "geometry": { "type": "Point", "coordinates": [ -97.7221944, 30.1836487 ] } },
{ "type": "Feature", "properties": { "Name": "Brazos Bend State Park Hale Lake Day Use Area", "State": "Texas", "Type": "NP" }, "geometry": { "type": "Point", "coordinates": [ -95.5836497, 29.3775093 ] } },
{ "type": "Feature", "properties": { "Name": "Sea Rim State Park", "State": "Texas", "Type": "NP" }, "geometry": { "type": "Point", "coordinates": [ -94.0435303, 29.6754996 ] } },
{ "type": "Feature", "properties": { "Name": "Palmetto State Park", "State": "Texas", "Type": "NP" }, "geometry": { "type": "Point", "coordinates": [ -97.5841702, 29.5897107 ] } },
{ "type": "Feature", "properties": { "Name": "Lake Houston Wilderness Park", "State": "Texas", "Type": "NP" }, "geometry": { "type": "Point", "coordinates": [ -95.1734941, 30.1192159 ] } },
{ "type": "Feature", "properties": { "Name": "Colorado Bend State Park", "State": "Texas", "Type": "NP" }, "geometry": { "type": "Point", "coordinates": [ -98.5042324, 31.0651694 ] } },
{ "type": "Feature", "properties": { "Name": "Inks Lake State Park", "State": "Texas", "Type": "NP" }, "geometry": { "type": "Point", "coordinates": [ -98.3690256, 30.7373973 ] } },
{ "type": "Feature", "properties": { "Name": "Galveston Island State Park Nature Center", "State": "Texas", "Type": "NP" }, "geometry": { "type": "Point", "coordinates": [ -94.9563261, 29.1988789 ] } },
{ "type": "Feature", "properties": { "Name": "Buescher State Park", "State": "Texas", "Type": "NP" }, "geometry": { "type": "Point", "coordinates": [ -97.1582595, 30.0391628 ] } },
{ "type": "Feature", "properties": { "Name": "Galveston Island State Park", "State": "Texas", "Type": "NP" }, "geometry": { "type": "Point", "coordinates": [ -94.9661549, 29.2033106 ] } },
{ "type": "Feature", "properties": { "Name": "Bryce Canyon National Park", "State": "Utah", "Type": "NP" }, "geometry": { "type": "Point", "coordinates": [ -112.1870895, 37.5930377 ] } },
{ "type": "Feature", "properties": { "Name": "Canyonlands National Park", "State": "Utah", "Type": "NP" }, "geometry": { "type": "Point", "coordinates": [ -109.9025345, 38.2135733 ] } },
{ "type": "Feature", "properties": { "Name": "Snow Canyon State Park", "State": "Utah", "Type": "NP" }, "geometry": { "type": "Point", "coordinates": [ -113.6395961, 37.2178145 ] } },
{ "type": "Feature", "properties": { "Name": "Dead Horse Point State Park", "State": "Utah", "Type": "NP" }, "geometry": { "type": "Point", "coordinates": [ -109.7294241, 38.5054267 ] } },
{ "type": "Feature", "properties": { "Name": "Utahraptor State Park", "State": "Utah", "Type": "NP" }, "geometry": { "type": "Point", "coordinates": [ -109.6970428, 38.7005694 ] } },
{ "type": "Feature", "properties": { "Name": "Arches National Park", "State": "Utah", "Type": "NP" }, "geometry": { "type": "Point", "coordinates": [ -109.5925139, 38.733081 ] } },
{ "type": "Feature", "properties": { "Name": "Utah Lake State Park", "State": "Utah", "Type": "NP" }, "geometry": { "type": "Point", "coordinates": [ -111.7362163, 40.2378421 ] } },
{ "type": "Feature", "properties": { "Name": "Goosenecks State Park", "State": "Utah", "Type": "NP" }, "geometry": { "type": "Point", "coordinates": [ -109.9271273, 37.1749025 ] } },
{ "type": "Feature", "properties": { "Name": "Grand Staircase-Escalante National Monument", "State": "Utah", "Type": "NP" }, "geometry": { "type": "Point", "coordinates": [ -111.5943485, 37.4608765 ] } },
{ "type": "Feature", "properties": { "Name": "Kodachrome Basin State Park", "State": "Utah", "Type": "NP" }, "geometry": { "type": "Point", "coordinates": [ -111.9939579, 37.5177622 ] } },
{ "type": "Feature", "properties": { "Name": "Zion National Park", "State": "Utah", "Type": "NP" }, "geometry": { "type": "Point", "coordinates": [ -113.0263005, 37.2982022 ] } },
{ "type": "Feature", "properties": { "Name": "Goblin Valley State Park", "State": "Utah", "Type": "NP" }, "geometry": { "type": "Point", "coordinates": [ -110.707109, 38.573697 ] } },
{ "type": "Feature", "properties": { "Name": "Antelope Island State Park", "State": "Utah", "Type": "NP" }, "geometry": { "type": "Point", "coordinates": [ -112.2279167, 41.0324017 ] } },
{ "type": "Feature", "properties": { "Name": "Cedar Breaks National Monument", "State": "Utah", "Type": "NP" }, "geometry": { "type": "Point", "coordinates": [ -112.8452345, 37.636269899999988 ] } },
{ "type": "Feature", "properties": { "Name": "Capitol Reef National Park", "State": "Utah", "Type": "NP" }, "geometry": { "type": "Point", "coordinates": [ -111.1354983, 38.0877312 ] } },
{ "type": "Feature", "properties": { "Name": "Millsite State Park", "State": "Utah", "Type": "NP" }, "geometry": { "type": "Point", "coordinates": [ -111.1939734, 39.0920411 ] } },
{ "type": "Feature", "properties": { "Name": "Fremont Indian State Park and Museum", "State": "Utah", "Type": "NP" }, "geometry": { "type": "Point", "coordinates": [ -112.3349416, 38.5775683 ] } },
{ "type": "Feature", "properties": { "Name": "Manti-La Sal National Forest", "State": "Utah", "Type": "NP" }, "geometry": { "type": "Point", "coordinates": [ -111.2129616, 39.0398127 ] } },
{ "type": "Feature", "properties": { "Name": "Flaming Gorge National Recreation Area", "State": "Utah", "Type": "NP" }, "geometry": { "type": "Point", "coordinates": [ -109.5622774, 40.9713438 ] } },
{ "type": "Feature", "properties": { "Name": "Quail Creek State Park", "State": "Utah", "Type": "NP" }, "geometry": { "type": "Point", "coordinates": [ -113.3927389, 37.1891865 ] } },
{ "type": "Feature", "properties": { "Name": "Kingsland Bay State Park", "State": "Vermont", "Type": "NP" }, "geometry": { "type": "Point", "coordinates": [ -73.2965526, 44.2403597 ] } },
{ "type": "Feature", "properties": { "Name": "Marsh-Billings-Rockefeller National Historical Park", "State": "Vermont", "Type": "NP" }, "geometry": { "type": "Point", "coordinates": [ -72.5178484, 43.6311474 ] } },
{ "type": "Feature", "properties": { "Name": "Camel's Hump State Park", "State": "Vermont", "Type": "NP" }, "geometry": { "type": "Point", "coordinates": [ -72.8759733, 44.311867199999988 ] } },
{ "type": "Feature", "properties": { "Name": "Green Mountain National Forest", "State": "Vermont", "Type": "NP" }, "geometry": { "type": "Point", "coordinates": [ -72.9996256, 43.0547606 ] } },
{ "type": "Feature", "properties": { "Name": "Mt. Philo State Park", "State": "Vermont", "Type": "NP" }, "geometry": { "type": "Point", "coordinates": [ -73.2147449, 44.2780592 ] } },
{ "type": "Feature", "properties": { "Name": "Mt Ascutney State Park", "State": "Vermont", "Type": "NP" }, "geometry": { "type": "Point", "coordinates": [ -72.405868, 43.437683 ] } },
{ "type": "Feature", "properties": { "Name": "Branbury State Park", "State": "Vermont", "Type": "NP" }, "geometry": { "type": "Point", "coordinates": [ -73.066821, 43.906067 ] } },
{ "type": "Feature", "properties": { "Name": "Mount Mansfield State Forest", "State": "Vermont", "Type": "NP" }, "geometry": { "type": "Point", "coordinates": [ -72.8185945, 44.4918003 ] } },
{ "type": "Feature", "properties": { "Name": "Quechee State Park", "State": "Vermont", "Type": "NP" }, "geometry": { "type": "Point", "coordinates": [ -72.4009679, 43.6362499 ] } },
{ "type": "Feature", "properties": { "Name": "Camels Hump State Park", "State": "Vermont", "Type": "NP" }, "geometry": { "type": "Point", "coordinates": [ -72.8791478, 44.322347 ] } },
{ "type": "Feature", "properties": { "Name": "Darling State Park", "State": "Vermont", "Type": "NP" }, "geometry": { "type": "Point", "coordinates": [ -71.8935779, 44.5659002 ] } },
{ "type": "Feature", "properties": { "Name": "Taconic Ramble State Park", "State": "Vermont", "Type": "NP" }, "geometry": { "type": "Point", "coordinates": [ -73.1445592, 43.6932339 ] } },
{ "type": "Feature", "properties": { "Name": "Underhill State Park", "State": "Vermont", "Type": "NP" }, "geometry": { "type": "Point", "coordinates": [ -72.8431192, 44.5291275 ] } },
{ "type": "Feature", "properties": { "Name": "Burton Island State Park", "State": "Vermont", "Type": "NP" }, "geometry": { "type": "Point", "coordinates": [ -73.198407, 44.776456 ] } },
{ "type": "Feature", "properties": { "Name": "Button Bay State Park", "State": "Vermont", "Type": "NP" }, "geometry": { "type": "Point", "coordinates": [ -73.3503374, 44.1829081 ] } },
{ "type": "Feature", "properties": { "Name": "Kill Kare State Park", "State": "Vermont", "Type": "NP" }, "geometry": { "type": "Point", "coordinates": [ -73.1826223, 44.7781617 ] } },
{ "type": "Feature", "properties": { "Name": "Half Moon Pond State Park", "State": "Vermont", "Type": "NP" }, "geometry": { "type": "Point", "coordinates": [ -73.222885, 43.699089 ] } },
{ "type": "Feature", "properties": { "Name": "Jamaica State Park", "State": "Vermont", "Type": "NP" }, "geometry": { "type": "Point", "coordinates": [ -72.7733393, 43.1056521 ] } },
{ "type": "Feature", "properties": { "Name": "Sentinel Rock", "State": "Vermont", "Type": "NP" }, "geometry": { "type": "Point", "coordinates": [ -72.0285185, 44.7909722 ] } },
{ "type": "Feature", "properties": { "Name": "Elmore State Park", "State": "Vermont", "Type": "NP" }, "geometry": { "type": "Point", "coordinates": [ -72.5277611, 44.5444633 ] } },
{ "type": "Feature", "properties": { "Name": "Prince William Forest Park", "State": "Virginia", "Type": "NP" }, "geometry": { "type": "Point", "coordinates": [ -77.3841718, 38.5853701 ] } },
{ "type": "Feature", "properties": { "Name": "Belle Isle State Park", "State": "Virginia", "Type": "NP" }, "geometry": { "type": "Point", "coordinates": [ -76.5800036, 37.7828542 ] } },
{ "type": "Feature", "properties": { "Name": "Hungry Mother State Park", "State": "Virginia", "Type": "NP" }, "geometry": { "type": "Point", "coordinates": [ -81.5257095, 36.8849482 ] } },
{ "type": "Feature", "properties": { "Name": "Seven Bends State Park", "State": "Virginia", "Type": "NP" }, "geometry": { "type": "Point", "coordinates": [ -78.4893495, 38.8546777 ] } },
{ "type": "Feature", "properties": { "Name": "Leesylvania State Park", "State": "Virginia", "Type": "NP" }, "geometry": { "type": "Point", "coordinates": [ -77.2586893, 38.590729 ] } },
{ "type": "Feature", "properties": { "Name": "Occoneechee State Park", "State": "Virginia", "Type": "NP" }, "geometry": { "type": "Point", "coordinates": [ -78.52583340000001, 36.6241207 ] } },
{ "type": "Feature", "properties": { "Name": "Caledon State Park", "State": "Virginia", "Type": "NP" }, "geometry": { "type": "Point", "coordinates": [ -77.1555972, 38.3417594 ] } },
{ "type": "Feature", "properties": { "Name": "Staunton River Battlefield State Park", "State": "Virginia", "Type": "NP" }, "geometry": { "type": "Point", "coordinates": [ -78.7061586, 36.8833379 ] } },
{ "type": "Feature", "properties": { "Name": "Natural Bridge State Park", "State": "Virginia", "Type": "NP" }, "geometry": { "type": "Point", "coordinates": [ -79.5437481, 37.6286389 ] } },
{ "type": "Feature", "properties": { "Name": "Sky Meadows State Park", "State": "Virginia", "Type": "NP" }, "geometry": { "type": "Point", "coordinates": [ -77.9710106, 38.9896012 ] } },
{ "type": "Feature", "properties": { "Name": "George Washington & Jefferson National Forest", "State": "Virginia", "Type": "NP" }, "geometry": { "type": "Point", "coordinates": [ -79.9416549, 37.8226234 ] } },
{ "type": "Feature", "properties": { "Name": "Moncove Lake State Park", "State": "Virginia", "Type": "NP" }, "geometry": { "type": "Point", "coordinates": [ -80.3525918, 37.6222955 ] } },
{ "type": "Feature", "properties": { "Name": "York River State Park", "State": "Virginia", "Type": "NP" }, "geometry": { "type": "Point", "coordinates": [ -76.7182693, 37.4018789 ] } },
{ "type": "Feature", "properties": { "Name": "Machicomoco State Park", "State": "Virginia", "Type": "NP" }, "geometry": { "type": "Point", "coordinates": [ -76.5391125, 37.312214399999988 ] } },
{ "type": "Feature", "properties": { "Name": "Bear Creek Lake State Park", "State": "Virginia", "Type": "NP" }, "geometry": { "type": "Point", "coordinates": [ -78.2732427, 37.5319683 ] } },
{ "type": "Feature", "properties": { "Name": "Manassas National Battlefield Park", "State": "Virginia", "Type": "NP" }, "geometry": { "type": "Point", "coordinates": [ -77.5352996, 38.8171429 ] } },
{ "type": "Feature", "properties": { "Name": "New River Trail State Park Parking", "State": "Virginia", "Type": "NP" }, "geometry": { "type": "Point", "coordinates": [ -80.716845100000015, 36.9614252 ] } },
{ "type": "Feature", "properties": { "Name": "First Landing State Park", "State": "Virginia", "Type": "NP" }, "geometry": { "type": "Point", "coordinates": [ -76.021696, 36.9066068 ] } },
{ "type": "Feature", "properties": { "Name": "Sailor's Creek Battlefield Historic State Park", "State": "Virginia", "Type": "NP" }, "geometry": { "type": "Point", "coordinates": [ -78.2271143, 37.3033137 ] } },
{ "type": "Feature", "properties": { "Name": "Staunton River State Park", "State": "Virginia", "Type": "NP" }, "geometry": { "type": "Point", "coordinates": [ -78.6768109, 36.6981267 ] } },
{ "type": "Feature", "properties": { "Name": "Washington-on-the-Brazos State Historic Site", "State": "Washington", "Type": "NP" }, "geometry": { "type": "Point", "coordinates": [ -96.1551108, 30.3259109 ] } },
{ "type": "Feature", "properties": { "Name": "Olympic National Park", "State": "Washington", "Type": "NP" }, "geometry": { "type": "Point", "coordinates": [ -123.6043524, 47.8021067 ] } },
{ "type": "Feature", "properties": { "Name": "Eastern Glades", "State": "Washington", "Type": "NP" }, "geometry": { "type": "Point", "coordinates": [ -95.4286254, 29.7671655 ] } },
{ "type": "Feature", "properties": { "Name": "Lincoln Rock State Park", "State": "Washington", "Type": "NP" }, "geometry": { "type": "Point", "coordinates": [ -120.2848641, 47.5387405 ] } },
{ "type": "Feature", "properties": { "Name": "Deception Pass State Park", "State": "Washington", "Type": "NP" }, "geometry": { "type": "Point", "coordinates": [ -122.6449252, 48.4064989 ] } },
{ "type": "Feature", "properties": { "Name": "Sun Lakes-Dry Falls State Park", "State": "Washington", "Type": "NP" }, "geometry": { "type": "Point", "coordinates": [ -119.3624834, 47.5915476 ] } },
{ "type": "Feature", "properties": { "Name": "Peshastin Pinnacles State Park", "State": "Washington", "Type": "NP" }, "geometry": { "type": "Point", "coordinates": [ -120.5199375, 47.539639400000013 ] } },
{ "type": "Feature", "properties": { "Name": "New River Gorge National Park & Preserve", "State": "West Virginia", "Type": "NP" }, "geometry": { "type": "Point", "coordinates": [ -81.0531025, 37.8707083 ] } },
{ "type": "Feature", "properties": { "Name": "Babcock State Park", "State": "West Virginia", "Type": "NP" }, "geometry": { "type": "Point", "coordinates": [ -80.9829528, 37.9931248 ] } },
{ "type": "Feature", "properties": { "Name": "North Bend State Park", "State": "West Virginia", "Type": "NP" }, "geometry": { "type": "Point", "coordinates": [ -81.1117282, 39.2222566 ] } },
{ "type": "Feature", "properties": { "Name": "Audra State Park", "State": "West Virginia", "Type": "NP" }, "geometry": { "type": "Point", "coordinates": [ -80.0660351, 39.0396232 ] } },
{ "type": "Feature", "properties": { "Name": "Hawks Nest State Park", "State": "West Virginia", "Type": "NP" }, "geometry": { "type": "Point", "coordinates": [ -81.1178022, 38.1214139 ] } },
{ "type": "Feature", "properties": { "Name": "Tu-Endie-Wei State Park", "State": "West Virginia", "Type": "NP" }, "geometry": { "type": "Point", "coordinates": [ -82.1406891, 38.839303 ] } },
{ "type": "Feature", "properties": { "Name": "Tygart Lake State Park", "State": "West Virginia", "Type": "NP" }, "geometry": { "type": "Point", "coordinates": [ -80.0108002, 39.2801834 ] } },
{ "type": "Feature", "properties": { "Name": "Blackwater Falls State Park", "State": "West Virginia", "Type": "NP" }, "geometry": { "type": "Point", "coordinates": [ -79.4843412, 39.112571 ] } },
{ "type": "Feature", "properties": { "Name": "Twin Falls Resort State Park", "State": "West Virginia", "Type": "NP" }, "geometry": { "type": "Point", "coordinates": [ -81.4397242, 37.636682 ] } },
{ "type": "Feature", "properties": { "Name": "Cathedral State Park", "State": "West Virginia", "Type": "NP" }, "geometry": { "type": "Point", "coordinates": [ -79.5384617, 39.3252654 ] } },
{ "type": "Feature", "properties": { "Name": "Little Beaver State Park", "State": "West Virginia", "Type": "NP" }, "geometry": { "type": "Point", "coordinates": [ -81.0803148, 37.7559553 ] } },
{ "type": "Feature", "properties": { "Name": "Pinnacle Rock State Park", "State": "West Virginia", "Type": "NP" }, "geometry": { "type": "Point", "coordinates": [ -81.29273520000001, 37.3210445 ] } },
{ "type": "Feature", "properties": { "Name": "Tomlinson Run State Park", "State": "West Virginia", "Type": "NP" }, "geometry": { "type": "Point", "coordinates": [ -80.575573, 40.5415494 ] } },
{ "type": "Feature", "properties": { "Name": "Beartown State Park", "State": "West Virginia", "Type": "NP" }, "geometry": { "type": "Point", "coordinates": [ -80.2790587, 38.0561719 ] } },
{ "type": "Feature", "properties": { "Name": "Holly River State Park", "State": "West Virginia", "Type": "NP" }, "geometry": { "type": "Point", "coordinates": [ -80.3545088, 38.665325 ] } },
{ "type": "Feature", "properties": { "Name": "Lost River State Park", "State": "West Virginia", "Type": "NP" }, "geometry": { "type": "Point", "coordinates": [ -78.9237039, 38.8958211 ] } },
{ "type": "Feature", "properties": { "Name": "Coopers Rock State Forest", "State": "West Virginia", "Type": "NP" }, "geometry": { "type": "Point", "coordinates": [ -79.787777800000015, 39.6555556 ] } },
{ "type": "Feature", "properties": { "Name": "Camp Creek State Park & Forest", "State": "West Virginia", "Type": "NP" }, "geometry": { "type": "Point", "coordinates": [ -81.1331089, 37.505297 ] } },
{ "type": "Feature", "properties": { "Name": "Valley Falls State Park", "State": "West Virginia", "Type": "NP" }, "geometry": { "type": "Point", "coordinates": [ -80.0873598, 39.3888047 ] } },
{ "type": "Feature", "properties": { "Name": "Chief Logan State Park", "State": "West Virginia", "Type": "NP" }, "geometry": { "type": "Point", "coordinates": [ -82.0089356, 37.8933296 ] } },
{ "type": "Feature", "properties": { "Name": "Natural Bridge State Park", "State": "Wisconsin", "Type": "NP" }, "geometry": { "type": "Point", "coordinates": [ -89.930152299999989, 43.3450772 ] } },
{ "type": "Feature", "properties": { "Name": "Buckhorn State Park", "State": "Wisconsin", "Type": "NP" }, "geometry": { "type": "Point", "coordinates": [ -90.0036019, 43.9457623 ] } },
{ "type": "Feature", "properties": { "Name": "Wildcat Mountain State Park", "State": "Wisconsin", "Type": "NP" }, "geometry": { "type": "Point", "coordinates": [ -90.5741755, 43.697627 ] } },
{ "type": "Feature", "properties": { "Name": "Mill Bluff State Park", "State": "Wisconsin", "Type": "NP" }, "geometry": { "type": "Point", "coordinates": [ -90.3193859, 43.9415369 ] } },
{ "type": "Feature", "properties": { "Name": "High Cliff State Park", "State": "Wisconsin", "Type": "NP" }, "geometry": { "type": "Point", "coordinates": [ -88.2910966, 44.166962 ] } },
{ "type": "Feature", "properties": { "Name": "Amnicon Falls State Park", "State": "Wisconsin", "Type": "NP" }, "geometry": { "type": "Point", "coordinates": [ -91.8921781, 46.608188899999988 ] } },
{ "type": "Feature", "properties": { "Name": "Frog Bay Tribal National Park", "State": "Wisconsin", "Type": "NP" }, "geometry": { "type": "Point", "coordinates": [ -90.788663, 46.9079402 ] } },
{ "type": "Feature", "properties": { "Name": "Perrot State Park", "State": "Wisconsin", "Type": "NP" }, "geometry": { "type": "Point", "coordinates": [ -91.47157, 44.020212099999988 ] } },
{ "type": "Feature", "properties": { "Name": "Tower Hill State Park", "State": "Wisconsin", "Type": "NP" }, "geometry": { "type": "Point", "coordinates": [ -90.0483324, 43.1469781 ] } },
{ "type": "Feature", "properties": { "Name": "Rocky Arbor State Park", "State": "Wisconsin", "Type": "NP" }, "geometry": { "type": "Point", "coordinates": [ -89.8019321, 43.6410467 ] } },
{ "type": "Feature", "properties": { "Name": "Devil's Lake State Park", "State": "Wisconsin", "Type": "NP" }, "geometry": { "type": "Point", "coordinates": [ -89.7313678, 43.4284471 ] } },
{ "type": "Feature", "properties": { "Name": "Newport State Park", "State": "Wisconsin", "Type": "NP" }, "geometry": { "type": "Point", "coordinates": [ -86.9916127, 45.2410642 ] } },
{ "type": "Feature", "properties": { "Name": "Kettle Moraine State Forest - Northern Unit", "State": "Wisconsin", "Type": "NP" }, "geometry": { "type": "Point", "coordinates": [ -88.1535352, 43.6178707 ] } },
{ "type": "Feature", "properties": { "Name": "Rib Mountain State Park", "State": "Wisconsin", "Type": "NP" }, "geometry": { "type": "Point", "coordinates": [ -89.688221, 44.921581 ] } },
{ "type": "Feature", "properties": { "Name": "Big Bay State Park", "State": "Wisconsin", "Type": "NP" }, "geometry": { "type": "Point", "coordinates": [ -90.6737266, 46.7881132 ] } },
{ "type": "Feature", "properties": { "Name": "Copper Falls State Park", "State": "Wisconsin", "Type": "NP" }, "geometry": { "type": "Point", "coordinates": [ -90.6439684, 46.3761555 ] } },
{ "type": "Feature", "properties": { "Name": "Chequamegon-Nicolet National Forest", "State": "Wisconsin", "Type": "NP" }, "geometry": { "type": "Point", "coordinates": [ -88.6756667, 45.6745059 ] } },
{ "type": "Feature", "properties": { "Name": "Governor Dodge State Park", "State": "Wisconsin", "Type": "NP" }, "geometry": { "type": "Point", "coordinates": [ -90.1413105, 43.0169077 ] } },
{ "type": "Feature", "properties": { "Name": "Harrington Beach State Park", "State": "Wisconsin", "Type": "NP" }, "geometry": { "type": "Point", "coordinates": [ -87.803671, 43.492872299999988 ] } },
{ "type": "Feature", "properties": { "Name": "Roche-A-Cri State Park", "State": "Wisconsin", "Type": "NP" }, "geometry": { "type": "Point", "coordinates": [ -89.812646, 44.0012338 ] } },
{ "type": "Feature", "properties": { "Name": "Bighorn National Forest", "State": "Wyoming", "Type": "NP" }, "geometry": { "type": "Point", "coordinates": [ -107.361139, 44.5446757 ] } },
{ "type": "Feature", "properties": { "Name": "Grand Teton National Park", "State": "Wyoming", "Type": "NP" }, "geometry": { "type": "Point", "coordinates": [ -110.6817627, 43.7904282 ] } },
{ "type": "Feature", "properties": { "Name": "Hot Springs State Park", "State": "Wyoming", "Type": "NP" }, "geometry": { "type": "Point", "coordinates": [ -108.2049042, 43.650536 ] } },
{ "type": "Feature", "properties": { "Name": "Bridger-Teton National Forest", "State": "Wyoming", "Type": "NP" }, "geometry": { "type": "Point", "coordinates": [ -110.242659, 43.9260159 ] } },
{ "type": "Feature", "properties": { "Name": "Shoshone National Forest", "State": "Wyoming", "Type": "NP" }, "geometry": { "type": "Point", "coordinates": [ -109.5149293, 43.9817678 ] } },
{ "type": "Feature", "properties": { "Name": "Curt Gowdy State Park", "State": "Wyoming", "Type": "NP" }, "geometry": { "type": "Point", "coordinates": [ -105.2279971, 41.1694715 ] } },
{ "type": "Feature", "properties": { "Name": "Bear River State Park", "State": "Wyoming", "Type": "NP" }, "geometry": { "type": "Point", "coordinates": [ -110.9358215, 41.2640924 ] } },
{ "type": "Feature", "properties": { "Name": "Edness Kimball Wilkins Park", "State": "Wyoming", "Type": "NP" }, "geometry": { "type": "Point", "coordinates": [ -106.1813163, 42.8510482 ] } },
{ "type": "Feature", "properties": { "Name": "Buffalo Bill State Park", "State": "Wyoming", "Type": "NP" }, "geometry": { "type": "Point", "coordinates": [ -109.2443245, 44.5029669 ] } },
{ "type": "Feature", "properties": { "Name": "Sinks Canyon State Park", "State": "Wyoming", "Type": "NP" }, "geometry": { "type": "Point", "coordinates": [ -108.8132322, 42.7469606 ] } },
{ "type": "Feature", "properties": { "Name": "Casper Mountain County Park", "State": "Wyoming", "Type": "NP" }, "geometry": { "type": "Point", "coordinates": [ -106.3110551, 42.7413322 ] } },
{ "type": "Feature", "properties": { "Name": "Medicine Bow-Routt National Forest", "State": "Wyoming", "Type": "NP" }, "geometry": { "type": "Point", "coordinates": [ -106.2826475, 41.4585437 ] } },
{ "type": "Feature", "properties": { "Name": "Glendo State Park", "State": "Wyoming", "Type": "NP" }, "geometry": { "type": "Point", "coordinates": [ -104.965113, 42.4962988 ] } },
{ "type": "Feature", "properties": { "Name": "Boysen State Park", "State": "Wyoming", "Type": "NP" }, "geometry": { "type": "Point", "coordinates": [ -108.1635875, 43.404835299999988 ] } },
{ "type": "Feature", "properties": { "Name": "Seminoe State Park", "State": "Wyoming", "Type": "NP" }, "geometry": { "type": "Point", "coordinates": [ -106.8942633, 42.1362172 ] } },
{ "type": "Feature", "properties": { "Name": "Huston Park Wilderness", "State": "Wyoming", "Type": "NP" }, "geometry": { "type": "Point", "coordinates": [ -106.9672711, 41.1016319 ] } },
{ "type": "Feature", "properties": { "Name": "Keyhole State Park", "State": "Wyoming", "Type": "NP" }, "geometry": { "type": "Point", "coordinates": [ -104.7652816, 44.360893399999988 ] } },
{ "type": "Feature", "properties": { "Name": "Guernsey State Park", "State": "Wyoming", "Type": "NP" }, "geometry": { "type": "Point", "coordinates": [ -104.7656048, 42.3046672 ] } },
{ "type": "Feature", "properties": { "Name": "Thunder Basin National Grassland", "State": "Wyoming", "Type": "NP" }, "geometry": { "type": "Point", "coordinates": [ -104.8620298, 43.9481786 ] } },
{ "type": "Feature", "properties": { "Name": "Bennett Hill", "State": "Wyoming", "Type": "NP" }, "geometry": { "type": "Point", "coordinates": [ -104.9860841, 42.5234147 ] } }
]
}
