{
"type": "FeatureCollection",
"crs": { "type": "name", "properties": { "name": "urn:ogc:def:crs:OGC:1.3:CRS84" } },
"features": [
{ "type": "Feature", "properties": { "Name": "Cathedral Caverns State Park", "State": "Alabama", "Type": "TA" }, "geometry": { "type": "Point", "coordinates": [ -86.2215661, 34.5736709 ] } },
{ "type": "Feature", "properties": { "Name": "Little River Canyon National Preserve", "State": "Alabama", "Type": "TA" }, "geometry": { "type": "Point", "coordinates": [ -85.62538, 34.3883958 ] } },
{ "type": "Feature", "properties": { "Name": "Cheaha State Park", "State": "Alabama", "Type": "TA" }, "geometry": { "type": "Point", "coordinates": [ -85.8133195, 33.4700829 ] } },
{ "type": "Feature", "properties": { "Name": "Ave Maria Grotto", "State": "Alabama", "Type": "TA" }, "geometry": { "type": "Point", "coordinates": [ -86.8164206, 34.175375 ] } },
{ "type": "Feature", "properties": { "Name": "McWane Science Center", "State": "Alabama", "Type": "TA" }, "geometry": { "type": "Point", "coordinates": [ -86.808389, 33.5145686 ] } },
{ "type": "Feature", "properties": { "Name": "Gulf State Park", "State": "Alabama", "Type": "TA" }, "geometry": { "type": "Point", "coordinates": [ -87.6342115, 30.2684061 ] } },
{ "type": "Feature", "properties": { "Name": "Vulcan Park and Museum", "State": "Alabama", "Type": "TA" }, "geometry": { "type": "Point", "coordinates": [ -86.795537, 33.4917 ] } },
{ "type": "Feature", "properties": { "Name": "Alabama Gulf Coast Zoo", "State": "Alabama", "Type": "TA" }, "geometry": { "type": "Point", "coordinates": [ -87.6763229, 30.315682 ] } },
{ "type": "Feature", "properties": { "Name": "Freedom Rides Museum", "State": "Alabama", "Type": "TA" }, "geometry": { "type": "Point", "coordinates": [ -86.3091087, 32.3746249 ] } },
{ "type": "Feature", "properties": { "Name": "Moundville Archaeological Park", "State": "Alabama", "Type": "TA" }, "geometry": { "type": "Point", "coordinates": [ -87.6280574, 33.0027124 ] } },
{ "type": "Feature", "properties": { "Name": "Rickwood Caverns State Park", "State": "Alabama", "Type": "TA" }, "geometry": { "type": "Point", "coordinates": [ -86.862025, 33.874921 ] } },
{ "type": "Feature", "properties": { "Name": "Town of Spectre", "State": "Alabama", "Type": "TA" }, "geometry": { "type": "Point", "coordinates": [ -86.3305144, 32.448531 ] } },
{ "type": "Feature", "properties": { "Name": "Bamahenge", "State": "Alabama", "Type": "TA" }, "geometry": { "type": "Point", "coordinates": [ -87.5672317, 30.331442 ] } },
{ "type": "Feature", "properties": { "Name": "Rosa Parks Museum", "State": "Alabama", "Type": "TA" }, "geometry": { "type": "Point", "coordinates": [ -86.3114746, 32.3765926 ] } },
{ "type": "Feature", "properties": { "Name": "Dismals Canyon", "State": "Alabama", "Type": "TA" }, "geometry": { "type": "Point", "coordinates": [ -87.7815556, 34.3262135 ] } },
{ "type": "Feature", "properties": { "Name": "The Scott and Zelda Fitzgerald Museum", "State": "Alabama", "Type": "TA" }, "geometry": { "type": "Point", "coordinates": [ -86.2923094, 32.3586942 ] } },
{ "type": "Feature", "properties": { "Name": "Birmingham Botanical Gardens", "State": "Alabama", "Type": "TA" }, "geometry": { "type": "Point", "coordinates": [ -86.7744869, 33.4917153 ] } },
{ "type": "Feature", "properties": { "Name": "Old Cahawba Archaeological Park", "State": "Alabama", "Type": "TA" }, "geometry": { "type": "Point", "coordinates": [ -87.1047867, 32.3196628 ] } },
{ "type": "Feature", "properties": { "Name": "Lover's Leap", "State": "Alabama", "Type": "TA" }, "geometry": { "type": "Point", "coordinates": [ -86.8575213, 33.4119515 ] } },
{ "type": "Feature", "properties": { "Name": "Riverwalk", "State": "Alabama", "Type": "TA" }, "geometry": { "type": "Point", "coordinates": [ -86.313209500000013, 32.382454 ] } },
{ "type": "Feature", "properties": { "Name": "Kenai Fjords National Park", "State": "Alaska", "Type": "TA" }, "geometry": { "type": "Point", "coordinates": [ -150.187880299999989, 59.848674499999987 ] } },
{ "type": "Feature", "properties": { "Name": "Klondike Gold Rush National Historical Park Visitor Center", "State": "Alaska", "Type": "TA" }, "geometry": { "type": "Point", "coordinates": [ -135.31845580000001, 59.453499 ] } },
{ "type": "Feature", "properties": { "Name": "Brooks Falls", "State": "Alaska", "Type": "TA" }, "geometry": { "type": "Point", "coordinates": [ -155.7915477, 58.5549838 ] } },
{ "type": "Feature", "properties": { "Name": "Glacier Bay National Park and Preserve", "State": "Alaska", "Type": "TA" }, "geometry": { "type": "Point", "coordinates": [ -136.9002147, 58.6658073 ] } },
{ "type": "Feature", "properties": { "Name": "Gates of the Arctic National Park and Preserve", "State": "Alaska", "Type": "TA" }, "geometry": { "type": "Point", "coordinates": [ -153.3241121, 67.6854972 ] } },
{ "type": "Feature", "properties": { "Name": "Sitka National Historical Park", "State": "Alaska", "Type": "TA" }, "geometry": { "type": "Point", "coordinates": [ -135.3159986, 57.0483239 ] } },
{ "type": "Feature", "properties": { "Name": "Totem Bight State Historical Park", "State": "Alaska", "Type": "TA" }, "geometry": { "type": "Point", "coordinates": [ -131.772537699999987, 55.4201157 ] } },
{ "type": "Feature", "properties": { "Name": "Alaska Native Heritage Center", "State": "Alaska", "Type": "TA" }, "geometry": { "type": "Point", "coordinates": [ -149.7170999, 61.232814899999987 ] } },
{ "type": "Feature", "properties": { "Name": "Lake Clark National Park and Preserve", "State": "Alaska", "Type": "TA" }, "geometry": { "type": "Point", "coordinates": [ -153.5301092, 60.594101 ] } },
{ "type": "Feature", "properties": { "Name": "Baranof Castle State Historic Site", "State": "Alaska", "Type": "TA" }, "geometry": { "type": "Point", "coordinates": [ -135.3380656, 57.0486854 ] } },
{ "type": "Feature", "properties": { "Name": "Icy Strait Point", "State": "Alaska", "Type": "TA" }, "geometry": { "type": "Point", "coordinates": [ -135.4625921, 58.1291605 ] } },
{ "type": "Feature", "properties": { "Name": "Wrangell-St. Elias National Park & Preserve", "State": "Alaska", "Type": "TA" }, "geometry": { "type": "Point", "coordinates": [ -142.9856804, 61.7104448 ] } },
{ "type": "Feature", "properties": { "Name": "Alaska SeaLife Center", "State": "Alaska", "Type": "TA" }, "geometry": { "type": "Point", "coordinates": [ -149.440872500000012, 60.1003432 ] } },
{ "type": "Feature", "properties": { "Name": "Denali National Park and Preserve", "State": "Alaska", "Type": "TA" }, "geometry": { "type": "Point", "coordinates": [ -151.1926057, 63.1148002 ] } },
{ "type": "Feature", "properties": { "Name": "Museum of the North", "State": "Alaska", "Type": "TA" }, "geometry": { "type": "Point", "coordinates": [ -147.8423214, 64.8584847 ] } },
{ "type": "Feature", "properties": { "Name": "Tongass National Forest", "State": "Alaska", "Type": "TA" }, "geometry": { "type": "Point", "coordinates": [ -133.6247965, 56.9304426 ] } },
{ "type": "Feature", "properties": { "Name": "Alyeska Pipeline / Viewing Point", "State": "Alaska", "Type": "TA" }, "geometry": { "type": "Point", "coordinates": [ -147.6294202, 64.9291108 ] } },
{ "type": "Feature", "properties": { "Name": "Chugach National Forest", "State": "Alaska", "Type": "TA" }, "geometry": { "type": "Point", "coordinates": [ -147.2686428, 61.1578883 ] } },
{ "type": "Feature", "properties": { "Name": "Anchorage Museum", "State": "Alaska", "Type": "TA" }, "geometry": { "type": "Point", "coordinates": [ -149.8855791, 61.2162281 ] } },
{ "type": "Feature", "properties": { "Name": "Chugach State Park", "State": "Alaska", "Type": "TA" }, "geometry": { "type": "Point", "coordinates": [ -149.2304785, 61.1934395 ] } },
{ "type": "Feature", "properties": { "Name": "Grand Canyon Skywalk", "State": "Arizona", "Type": "TA" }, "geometry": { "type": "Point", "coordinates": [ -113.8108372, 36.011943 ] } },
{ "type": "Feature", "properties": { "Name": "Saguaro National Park", "State": "Arizona", "Type": "TA" }, "geometry": { "type": "Point", "coordinates": [ -111.166615, 32.2967359 ] } },
{ "type": "Feature", "properties": { "Name": "Butterfly Wonderland", "State": "Arizona", "Type": "TA" }, "geometry": { "type": "Point", "coordinates": [ -111.87619, 33.5545114 ] } },
{ "type": "Feature", "properties": { "Name": "Monument Valley", "State": "Arizona", "Type": "TA" }, "geometry": { "type": "Point", "coordinates": [ -110.0986187, 36.9969011 ] } },
{ "type": "Feature", "properties": { "Name": "Canyon de Chelly National Monument", "State": "Arizona", "Type": "TA" }, "geometry": { "type": "Point", "coordinates": [ -109.3197052, 36.1190734 ] } },
{ "type": "Feature", "properties": { "Name": "Arizona Boardwalk", "State": "Arizona", "Type": "TA" }, "geometry": { "type": "Point", "coordinates": [ -111.8768776, 33.5553335 ] } },
{ "type": "Feature", "properties": { "Name": "Grand Canyon National Park", "State": "Arizona", "Type": "TA" }, "geometry": { "type": "Point", "coordinates": [ -112.3535253, 36.2678855 ] } },
{ "type": "Feature", "properties": { "Name": "Goldfield Ghost Town and Mine Tours Inc.", "State": "Arizona", "Type": "TA" }, "geometry": { "type": "Point", "coordinates": [ -111.4918801, 33.457244 ] } },
{ "type": "Feature", "properties": { "Name": "Arizona Falls", "State": "Arizona", "Type": "TA" }, "geometry": { "type": "Point", "coordinates": [ -111.9587094, 33.4899045 ] } },
{ "type": "Feature", "properties": { "Name": "Meteor Crater Natural Landmark", "State": "Arizona", "Type": "TA" }, "geometry": { "type": "Point", "coordinates": [ -111.0221934, 35.0277544 ] } },
{ "type": "Feature", "properties": { "Name": "Phoenix Zoo", "State": "Arizona", "Type": "TA" }, "geometry": { "type": "Point", "coordinates": [ -111.9470063, 33.4500374 ] } },
{ "type": "Feature", "properties": { "Name": "Desert View Watchtower", "State": "Arizona", "Type": "TA" }, "geometry": { "type": "Point", "coordinates": [ -111.8262494, 36.044096 ] } },
{ "type": "Feature", "properties": { "Name": "Desert Botanical Garden", "State": "Arizona", "Type": "TA" }, "geometry": { "type": "Point", "coordinates": [ -111.944066, 33.4614942 ] } },
{ "type": "Feature", "properties": { "Name": "Hole in the Rock", "State": "Arizona", "Type": "TA" }, "geometry": { "type": "Point", "coordinates": [ -111.9452606, 33.4564869 ] } },
{ "type": "Feature", "properties": { "Name": "Taliesin West", "State": "Arizona", "Type": "TA" }, "geometry": { "type": "Point", "coordinates": [ -111.8451844, 33.6063815 ] } },
{ "type": "Feature", "properties": { "Name": "Frontier Town", "State": "Arizona", "Type": "TA" }, "geometry": { "type": "Point", "coordinates": [ -111.9455014, 33.831612799999988 ] } },
{ "type": "Feature", "properties": { "Name": "Montezuma Castle National Monument", "State": "Arizona", "Type": "TA" }, "geometry": { "type": "Point", "coordinates": [ -111.8349854, 34.6115755 ] } },
{ "type": "Feature", "properties": { "Name": "Crescent Moon Picnic Site", "State": "Arizona", "Type": "TA" }, "geometry": { "type": "Point", "coordinates": [ -111.807089, 34.826592 ] } },
{ "type": "Feature", "properties": { "Name": "Crescent Moon Ranch", "State": "Arizona", "Type": "TA" }, "geometry": { "type": "Point", "coordinates": [ -111.8086633, 34.8265471 ] } },
{ "type": "Feature", "properties": { "Name": "Coconino National Forest", "State": "Arizona", "Type": "TA" }, "geometry": { "type": "Point", "coordinates": [ -111.5590913, 34.9131691 ] } },
{ "type": "Feature", "properties": { "Name": "Blanchard Springs Caverns", "State": "Arkansas", "Type": "TA" }, "geometry": { "type": "Point", "coordinates": [ -92.1793056, 35.9638659 ] } },
{ "type": "Feature", "properties": { "Name": "Hot Springs National Park", "State": "Arkansas", "Type": "TA" }, "geometry": { "type": "Point", "coordinates": [ -93.0690934, 34.5269095 ] } },
{ "type": "Feature", "properties": { "Name": "War Eagle Cavern", "State": "Arkansas", "Type": "TA" }, "geometry": { "type": "Point", "coordinates": [ -93.9044702, 36.2952521 ] } },
{ "type": "Feature", "properties": { "Name": "Hot Springs Mountain Tower", "State": "Arkansas", "Type": "TA" }, "geometry": { "type": "Point", "coordinates": [ -93.0460883, 34.5172653 ] } },
{ "type": "Feature", "properties": { "Name": "The Grand Promenade", "State": "Arkansas", "Type": "TA" }, "geometry": { "type": "Point", "coordinates": [ -93.0529983, 34.5138641 ] } },
{ "type": "Feature", "properties": { "Name": "The Old Mill", "State": "Arkansas", "Type": "TA" }, "geometry": { "type": "Point", "coordinates": [ -92.2494072, 34.7916931 ] } },
{ "type": "Feature", "properties": { "Name": "Quigley's Castle", "State": "Arkansas", "Type": "TA" }, "geometry": { "type": "Point", "coordinates": [ -93.7560505, 36.3461675 ] } },
{ "type": "Feature", "properties": { "Name": "Rock House Cave", "State": "Arkansas", "Type": "TA" }, "geometry": { "type": "Point", "coordinates": [ -92.9364969, 35.1218176 ] } },
{ "type": "Feature", "properties": { "Name": "Crater of Diamonds State Park", "State": "Arkansas", "Type": "TA" }, "geometry": { "type": "Point", "coordinates": [ -93.6729312, 34.0325478 ] } },
{ "type": "Feature", "properties": { "Name": "Little Rock Zoo", "State": "Arkansas", "Type": "TA" }, "geometry": { "type": "Point", "coordinates": [ -92.3301901, 34.7470271 ] } },
{ "type": "Feature", "properties": { "Name": "Arkansas Alligator Farm & Petting Zoo", "State": "Arkansas", "Type": "TA" }, "geometry": { "type": "Point", "coordinates": [ -93.0725617, 34.5149552 ] } },
{ "type": "Feature", "properties": { "Name": "Old State House Museum", "State": "Arkansas", "Type": "TA" }, "geometry": { "type": "Point", "coordinates": [ -92.2725927, 34.7490498 ] } },
{ "type": "Feature", "properties": { "Name": "Eiffel Tower Park", "State": "Arkansas", "Type": "TA" }, "geometry": { "type": "Point", "coordinates": [ -93.7309872, 35.2922921 ] } },
{ "type": "Feature", "properties": { "Name": "Holy Land Tour", "State": "Arkansas", "Type": "TA" }, "geometry": { "type": "Point", "coordinates": [ -93.7196688, 36.4063379 ] } },
{ "type": "Feature", "properties": { "Name": "Lake Catherine State Park", "State": "Arkansas", "Type": "TA" }, "geometry": { "type": "Point", "coordinates": [ -92.9226486, 34.4287378 ] } },
{ "type": "Feature", "properties": { "Name": "Mammoth Spring State Park", "State": "Arkansas", "Type": "TA" }, "geometry": { "type": "Point", "coordinates": [ -91.5355124, 36.4957993 ] } },
{ "type": "Feature", "properties": { "Name": "Julius Breckling Riverfront Park", "State": "Arkansas", "Type": "TA" }, "geometry": { "type": "Point", "coordinates": [ -92.266912, 34.7484093 ] } },
{ "type": "Feature", "properties": { "Name": "Ouachita National Forest", "State": "Arkansas", "Type": "TA" }, "geometry": { "type": "Point", "coordinates": [ -93.7029002, 34.7621521 ] } },
{ "type": "Feature", "properties": { "Name": "Pioneer Village", "State": "Arkansas", "Type": "TA" }, "geometry": { "type": "Point", "coordinates": [ -91.728315099999989, 35.2340014 ] } },
{ "type": "Feature", "properties": { "Name": "Tiny Town", "State": "Arkansas", "Type": "TA" }, "geometry": { "type": "Point", "coordinates": [ -93.0623966, 34.5167848 ] } },
{ "type": "Feature", "properties": { "Name": "Space Center Houston", "State": "California", "Type": "TA" }, "geometry": { "type": "Point", "coordinates": [ -95.0981044, 29.551832 ] } },
{ "type": "Feature", "properties": { "Name": "Disneyland Park", "State": "California", "Type": "TA" }, "geometry": { "type": "Point", "coordinates": [ -117.9189742, 33.8120918 ] } },
{ "type": "Feature", "properties": { "Name": "Sequoia National Park", "State": "California", "Type": "TA" }, "geometry": { "type": "Point", "coordinates": [ -118.5657516, 36.4863668 ] } },
{ "type": "Feature", "properties": { "Name": "Disney California Adventure Park", "State": "California", "Type": "TA" }, "geometry": { "type": "Point", "coordinates": [ -117.920859, 33.806112 ] } },
{ "type": "Feature", "properties": { "Name": "Yosemite National Park", "State": "California", "Type": "TA" }, "geometry": { "type": "Point", "coordinates": [ -119.5383294, 37.8651011 ] } },
{ "type": "Feature", "properties": { "Name": "Redwood National and State Parks", "State": "California", "Type": "TA" }, "geometry": { "type": "Point", "coordinates": [ -124.041711, 41.4017156 ] } },
{ "type": "Feature", "properties": { "Name": "Universal Studios Hollywood", "State": "California", "Type": "TA" }, "geometry": { "type": "Point", "coordinates": [ -118.3533783, 34.138116800000013 ] } },
{ "type": "Feature", "properties": { "Name": "Balboa Park", "State": "California", "Type": "TA" }, "geometry": { "type": "Point", "coordinates": [ -117.144553, 32.7341479 ] } },
{ "type": "Feature", "properties": { "Name": "Yosemite Falls", "State": "California", "Type": "TA" }, "geometry": { "type": "Point", "coordinates": [ -119.5969074, 37.7565957 ] } },
{ "type": "Feature", "properties": { "Name": "Bay Area Park", "State": "California", "Type": "TA" }, "geometry": { "type": "Point", "coordinates": [ -95.0893592, 29.5966259 ] } },
{ "type": "Feature", "properties": { "Name": "Cabrillo National Monument", "State": "California", "Type": "TA" }, "geometry": { "type": "Point", "coordinates": [ -117.2416094, 32.6722558 ] } },
{ "type": "Feature", "properties": { "Name": "Joshua Tree National Park", "State": "California", "Type": "TA" }, "geometry": { "type": "Point", "coordinates": [ -115.9009923, 33.873415 ] } },
{ "type": "Feature", "properties": { "Name": "Hearst Castle", "State": "California", "Type": "TA" }, "geometry": { "type": "Point", "coordinates": [ -121.1682251, 35.6852076 ] } },
{ "type": "Feature", "properties": { "Name": "Sequoia National Park's Tunnel Log", "State": "California", "Type": "TA" }, "geometry": { "type": "Point", "coordinates": [ -118.761382, 36.5525663 ] } },
{ "type": "Feature", "properties": { "Name": "Mesquite Flat Sand Dunes", "State": "California", "Type": "TA" }, "geometry": { "type": "Point", "coordinates": [ -117.1131444, 36.6151215 ] } },
{ "type": "Feature", "properties": { "Name": "Kings Canyon National Park", "State": "California", "Type": "TA" }, "geometry": { "type": "Point", "coordinates": [ -118.5551477, 36.8878548 ] } },
{ "type": "Feature", "properties": { "Name": "Pinnacles National Park", "State": "California", "Type": "TA" }, "geometry": { "type": "Point", "coordinates": [ -121.1824925, 36.4905655 ] } },
{ "type": "Feature", "properties": { "Name": "Santa Monica Pier", "State": "California", "Type": "TA" }, "geometry": { "type": "Point", "coordinates": [ -118.4987585, 34.0082821 ] } },
{ "type": "Feature", "properties": { "Name": "Selena Quintanilla Perez Park", "State": "California", "Type": "TA" }, "geometry": { "type": "Point", "coordinates": [ -95.3047779, 29.7720642 ] } },
{ "type": "Feature", "properties": { "Name": "Royal Gorge Bridge & Park", "State": "Colorado", "Type": "TA" }, "geometry": { "type": "Point", "coordinates": [ -105.3227118, 38.4634987 ] } },
{ "type": "Feature", "properties": { "Name": "Rocky Mountain National Park", "State": "Colorado", "Type": "TA" }, "geometry": { "type": "Point", "coordinates": [ -105.6836389, 40.3427932 ] } },
{ "type": "Feature", "properties": { "Name": "Garden of the Gods Visitor & Nature Center", "State": "Colorado", "Type": "TA" }, "geometry": { "type": "Point", "coordinates": [ -104.8697556, 38.8783536 ] } },
{ "type": "Feature", "properties": { "Name": "Bishop Castle", "State": "Colorado", "Type": "TA" }, "geometry": { "type": "Point", "coordinates": [ -105.0944196, 38.0614198 ] } },
{ "type": "Feature", "properties": { "Name": "Mesa Verde National Park", "State": "Colorado", "Type": "TA" }, "geometry": { "type": "Point", "coordinates": [ -108.4618335, 37.2308729 ] } },
{ "type": "Feature", "properties": { "Name": "Red Rocks Park and Amphitheatre", "State": "Colorado", "Type": "TA" }, "geometry": { "type": "Point", "coordinates": [ -105.2052116, 39.6655381 ] } },
{ "type": "Feature", "properties": { "Name": "Blue River Plaza", "State": "Colorado", "Type": "TA" }, "geometry": { "type": "Point", "coordinates": [ -106.0464756, 39.4804927 ] } },
{ "type": "Feature", "properties": { "Name": "Boulder Falls", "State": "Colorado", "Type": "TA" }, "geometry": { "type": "Point", "coordinates": [ -105.405861, 40.004712 ] } },
{ "type": "Feature", "properties": { "Name": "Beyond Light Show", "State": "Colorado", "Type": "TA" }, "geometry": { "type": "Point", "coordinates": [ -104.9822776, 39.7091597 ] } },
{ "type": "Feature", "properties": { "Name": "Pikes Peak - America's Mountain", "State": "Colorado", "Type": "TA" }, "geometry": { "type": "Point", "coordinates": [ -104.9819578, 38.9083726 ] } },
{ "type": "Feature", "properties": { "Name": "Big Blue Bear", "State": "Colorado", "Type": "TA" }, "geometry": { "type": "Point", "coordinates": [ -104.9952912, 39.7436238 ] } },
{ "type": "Feature", "properties": { "Name": "Colorado Railroad Museum", "State": "Colorado", "Type": "TA" }, "geometry": { "type": "Point", "coordinates": [ -105.1933883, 39.7714516 ] } },
{ "type": "Feature", "properties": { "Name": "Hidee Gold Mine Tours and Panning", "State": "Colorado", "Type": "TA" }, "geometry": { "type": "Point", "coordinates": [ -105.50055, 39.78712 ] } },
{ "type": "Feature", "properties": { "Name": "Carousel of Happiness", "State": "Colorado", "Type": "TA" }, "geometry": { "type": "Point", "coordinates": [ -105.5100718, 39.9601134 ] } },
{ "type": "Feature", "properties": { "Name": "Denver Botanic Gardens", "State": "Colorado", "Type": "TA" }, "geometry": { "type": "Point", "coordinates": [ -104.9601257, 39.7321335 ] } },
{ "type": "Feature", "properties": { "Name": "History Colorado Center", "State": "Colorado", "Type": "TA" }, "geometry": { "type": "Point", "coordinates": [ -104.9871305, 39.7358374 ] } },
{ "type": "Feature", "properties": { "Name": "Denver Free Walking Tours", "State": "Colorado", "Type": "TA" }, "geometry": { "type": "Point", "coordinates": [ -104.9856919, 39.7392397 ] } },
{ "type": "Feature", "properties": { "Name": "Country Boy Mine", "State": "Colorado", "Type": "TA" }, "geometry": { "type": "Point", "coordinates": [ -106.0141453, 39.4811049 ] } },
{ "type": "Feature", "properties": { "Name": "Downtown Golden", "State": "Colorado", "Type": "TA" }, "geometry": { "type": "Point", "coordinates": [ -105.2212787, 39.7552901 ] } },
{ "type": "Feature", "properties": { "Name": "Dinosaur Ridge Main Visitor Center", "State": "Colorado", "Type": "TA" }, "geometry": { "type": "Point", "coordinates": [ -105.190562, 39.6890052 ] } },
{ "type": "Feature", "properties": { "Name": "The Mark Twain House & Museum", "State": "Connecticut", "Type": "TA" }, "geometry": { "type": "Point", "coordinates": [ -72.7014493, 41.7670235 ] } },
{ "type": "Feature", "properties": { "Name": "Gillette Castle State Park", "State": "Connecticut", "Type": "TA" }, "geometry": { "type": "Point", "coordinates": [ -72.4284143, 41.4229825 ] } },
{ "type": "Feature", "properties": { "Name": "Wadsworth Atheneum Museum of Art", "State": "Connecticut", "Type": "TA" }, "geometry": { "type": "Point", "coordinates": [ -72.6730855, 41.7637113 ] } },
{ "type": "Feature", "properties": { "Name": "Mystic Aquarium", "State": "Connecticut", "Type": "TA" }, "geometry": { "type": "Point", "coordinates": [ -71.9526649, 41.3733894 ] } },
{ "type": "Feature", "properties": { "Name": "Connecticut's Old State House", "State": "Connecticut", "Type": "TA" }, "geometry": { "type": "Point", "coordinates": [ -72.6727365, 41.766026 ] } },
{ "type": "Feature", "properties": { "Name": "Silver Sands State Park", "State": "Connecticut", "Type": "TA" }, "geometry": { "type": "Point", "coordinates": [ -73.0676551, 41.2003752 ] } },
{ "type": "Feature", "properties": { "Name": "Weir Farm National Historical Park", "State": "Connecticut", "Type": "TA" }, "geometry": { "type": "Point", "coordinates": [ -73.4540046, 41.2580206 ] } },
{ "type": "Feature", "properties": { "Name": "The Carousel Museum", "State": "Connecticut", "Type": "TA" }, "geometry": { "type": "Point", "coordinates": [ -72.9394754, 41.6709498 ] } },
{ "type": "Feature", "properties": { "Name": "Dinosaur State Park", "State": "Connecticut", "Type": "TA" }, "geometry": { "type": "Point", "coordinates": [ -72.6568621, 41.651899 ] } },
{ "type": "Feature", "properties": { "Name": "Hammonasset Beach State Park", "State": "Connecticut", "Type": "TA" }, "geometry": { "type": "Point", "coordinates": [ -72.5584208, 41.2666982 ] } },
{ "type": "Feature", "properties": { "Name": "Rocky Neck State Park", "State": "Connecticut", "Type": "TA" }, "geometry": { "type": "Point", "coordinates": [ -72.2413402, 41.315833 ] } },
{ "type": "Feature", "properties": { "Name": "New Britain Museum of American Art", "State": "Connecticut", "Type": "TA" }, "geometry": { "type": "Point", "coordinates": [ -72.7919151, 41.6642961 ] } },
{ "type": "Feature", "properties": { "Name": "Spirits of Milford Ghost Walks & Tarot Readings", "State": "Connecticut", "Type": "TA" }, "geometry": { "type": "Point", "coordinates": [ -73.0556806, 41.2209892 ] } },
{ "type": "Feature", "properties": { "Name": "Lighthouse Point Park", "State": "Connecticut", "Type": "TA" }, "geometry": { "type": "Point", "coordinates": [ -72.9035323, 41.2488564 ] } },
{ "type": "Feature", "properties": { "Name": "Harriet Beecher Stowe Center", "State": "Connecticut", "Type": "TA" }, "geometry": { "type": "Point", "coordinates": [ -72.7003833, 41.7668083 ] } },
{ "type": "Feature", "properties": { "Name": "Putnam Memorial State Park", "State": "Connecticut", "Type": "TA" }, "geometry": { "type": "Point", "coordinates": [ -73.3815692, 41.3373384 ] } },
{ "type": "Feature", "properties": { "Name": "White Memorial Conservation Center", "State": "Connecticut", "Type": "TA" }, "geometry": { "type": "Point", "coordinates": [ -73.2127825, 41.7240917 ] } },
{ "type": "Feature", "properties": { "Name": "Judges Cave", "State": "Connecticut", "Type": "TA" }, "geometry": { "type": "Point", "coordinates": [ -72.9666531, 41.3385726 ] } },
{ "type": "Feature", "properties": { "Name": "Connecticut's Beardsley Zoo", "State": "Connecticut", "Type": "TA" }, "geometry": { "type": "Point", "coordinates": [ -73.1821327, 41.2097156 ] } },
{ "type": "Feature", "properties": { "Name": "Elizabeth Park Conservancy", "State": "Connecticut", "Type": "TA" }, "geometry": { "type": "Point", "coordinates": [ -72.7193936, 41.7745834 ] } },
{ "type": "Feature", "properties": { "Name": "The Old State House", "State": "Delaware", "Type": "TA" }, "geometry": { "type": "Point", "coordinates": [ -75.5228658, 39.15649 ] } },
{ "type": "Feature", "properties": { "Name": "Fort Delaware State Park", "State": "Delaware", "Type": "TA" }, "geometry": { "type": "Point", "coordinates": [ -75.587367, 39.578484 ] } },
{ "type": "Feature", "properties": { "Name": "John Dickinson Plantation", "State": "Delaware", "Type": "TA" }, "geometry": { "type": "Point", "coordinates": [ -75.4490524, 39.1029257 ] } },
{ "type": "Feature", "properties": { "Name": "Fenwick Island State Park", "State": "Delaware", "Type": "TA" }, "geometry": { "type": "Point", "coordinates": [ -75.0503637, 38.4718053 ] } },
{ "type": "Feature", "properties": { "Name": "First State National Historical Park", "State": "Delaware", "Type": "TA" }, "geometry": { "type": "Point", "coordinates": [ -75.563597, 39.659815 ] } },
{ "type": "Feature", "properties": { "Name": "Zwaanendael Museum", "State": "Delaware", "Type": "TA" }, "geometry": { "type": "Point", "coordinates": [ -75.1391802, 38.774105 ] } },
{ "type": "Feature", "properties": { "Name": "Chief Little Owl", "State": "Delaware", "Type": "TA" }, "geometry": { "type": "Point", "coordinates": [ -75.0589531, 38.5382305 ] } },
{ "type": "Feature", "properties": { "Name": "Delaware Children's Museum", "State": "Delaware", "Type": "TA" }, "geometry": { "type": "Point", "coordinates": [ -75.5605136, 39.7344723 ] } },
{ "type": "Feature", "properties": { "Name": "Indian River Life-Saving Station Museum", "State": "Delaware", "Type": "TA" }, "geometry": { "type": "Point", "coordinates": [ -75.0670648, 38.6337728 ] } },
{ "type": "Feature", "properties": { "Name": "Brandywine Creek State Park", "State": "Delaware", "Type": "TA" }, "geometry": { "type": "Point", "coordinates": [ -75.572962300000015, 39.8059928 ] } },
{ "type": "Feature", "properties": { "Name": "Rockford Tower", "State": "Delaware", "Type": "TA" }, "geometry": { "type": "Point", "coordinates": [ -75.5746722, 39.7673479 ] } },
{ "type": "Feature", "properties": { "Name": "Air Mobility Command Museum", "State": "Delaware", "Type": "TA" }, "geometry": { "type": "Point", "coordinates": [ -75.4568074, 39.1190036 ] } },
{ "type": "Feature", "properties": { "Name": "New Castle Battery Park", "State": "Delaware", "Type": "TA" }, "geometry": { "type": "Point", "coordinates": [ -75.5642384, 39.6582087 ] } },
{ "type": "Feature", "properties": { "Name": "Harbor of Refuge Lighthouse", "State": "Delaware", "Type": "TA" }, "geometry": { "type": "Point", "coordinates": [ -75.0923667, 38.8144824 ] } },
{ "type": "Feature", "properties": { "Name": "Bethany Beach Boardwalk", "State": "Delaware", "Type": "TA" }, "geometry": { "type": "Point", "coordinates": [ -75.0545017, 38.5384841 ] } },
{ "type": "Feature", "properties": { "Name": "WWII Observation Tower #1 Bethany Beach", "State": "Delaware", "Type": "TA" }, "geometry": { "type": "Point", "coordinates": [ -75.0538328, 38.5058505 ] } },
{ "type": "Feature", "properties": { "Name": "First State Heritage Park's John Bell House", "State": "Delaware", "Type": "TA" }, "geometry": { "type": "Point", "coordinates": [ -75.5230772, 39.1559718 ] } },
{ "type": "Feature", "properties": { "Name": "Cape Henlopen State Park", "State": "Delaware", "Type": "TA" }, "geometry": { "type": "Point", "coordinates": [ -75.1032533, 38.7821424 ] } },
{ "type": "Feature", "properties": { "Name": "Johnson Victrola Museum", "State": "Delaware", "Type": "TA" }, "geometry": { "type": "Point", "coordinates": [ -75.5272924, 39.155649 ] } },
{ "type": "Feature", "properties": { "Name": "Bowers Beach Maritime Museum", "State": "Delaware", "Type": "TA" }, "geometry": { "type": "Point", "coordinates": [ -75.4021953, 39.0596494 ] } },
{ "type": "Feature", "properties": { "Name": "Madame Tussauds Orlando", "State": "Florida", "Type": "TA" }, "geometry": { "type": "Point", "coordinates": [ -81.4686057, 28.4437626 ] } },
{ "type": "Feature", "properties": { "Name": "The Wheel at ICON Park", "State": "Florida", "Type": "TA" }, "geometry": { "type": "Point", "coordinates": [ -81.4683162, 28.4432814 ] } },
{ "type": "Feature", "properties": { "Name": "Busch Gardens Tampa Bay", "State": "Florida", "Type": "TA" }, "geometry": { "type": "Point", "coordinates": [ -82.4194607, 28.037066 ] } },
{ "type": "Feature", "properties": { "Name": "Ripley's Believe It or Not!", "State": "Florida", "Type": "TA" }, "geometry": { "type": "Point", "coordinates": [ -81.4703872, 28.4462043 ] } },
{ "type": "Feature", "properties": { "Name": "Discovery Cove Orlando", "State": "Florida", "Type": "TA" }, "geometry": { "type": "Point", "coordinates": [ -81.461451, 28.4054404 ] } },
{ "type": "Feature", "properties": { "Name": "Soarin' Around the World", "State": "Florida", "Type": "TA" }, "geometry": { "type": "Point", "coordinates": [ -81.5520975, 28.3736843 ] } },
{ "type": "Feature", "properties": { "Name": "Na'vi River Journey", "State": "Florida", "Type": "TA" }, "geometry": { "type": "Point", "coordinates": [ -81.591624600000017, 28.3547519 ] } },
{ "type": "Feature", "properties": { "Name": "The Wizarding World of Harry Potter - Diagon Alley", "State": "Florida", "Type": "TA" }, "geometry": { "type": "Point", "coordinates": [ -81.4693747, 28.4796116 ] } },
{ "type": "Feature", "properties": { "Name": "LEGOLAND Florida Water Park", "State": "Florida", "Type": "TA" }, "geometry": { "type": "Point", "coordinates": [ -81.6918783, 27.9924787 ] } },
{ "type": "Feature", "properties": { "Name": "SeaWorld Orlando", "State": "Florida", "Type": "TA" }, "geometry": { "type": "Point", "coordinates": [ -81.4597107, 28.409718 ] } },
{ "type": "Feature", "properties": { "Name": "Disney's Animal Kingdom Theme Park", "State": "Florida", "Type": "TA" }, "geometry": { "type": "Point", "coordinates": [ -81.5905788, 28.3574423 ] } },
{ "type": "Feature", "properties": { "Name": "Universal Orlando Resort", "State": "Florida", "Type": "TA" }, "geometry": { "type": "Point", "coordinates": [ -81.4678193, 28.4743207 ] } },
{ "type": "Feature", "properties": { "Name": "Avatar Flight of Passage", "State": "Florida", "Type": "TA" }, "geometry": { "type": "Point", "coordinates": [ -81.5922927, 28.3546987 ] } },
{ "type": "Feature", "properties": { "Name": "Wild Florida Airboats & Gator Park", "State": "Florida", "Type": "TA" }, "geometry": { "type": "Point", "coordinates": [ -81.3030732, 28.0840078 ] } },
{ "type": "Feature", "properties": { "Name": "Gatorland", "State": "Florida", "Type": "TA" }, "geometry": { "type": "Point", "coordinates": [ -81.4022109, 28.3556496 ] } },
{ "type": "Feature", "properties": { "Name": "Bok Tower Gardens", "State": "Florida", "Type": "TA" }, "geometry": { "type": "Point", "coordinates": [ -81.5773804, 27.9372683 ] } },
{ "type": "Feature", "properties": { "Name": "The American Adventure Pavilion", "State": "Florida", "Type": "TA" }, "geometry": { "type": "Point", "coordinates": [ -81.5493827, 28.3676206 ] } },
{ "type": "Feature", "properties": { "Name": "Everglades National Park", "State": "Florida", "Type": "TA" }, "geometry": { "type": "Point", "coordinates": [ -80.8986509, 25.2866155 ] } },
{ "type": "Feature", "properties": { "Name": "Tree of Life", "State": "Florida", "Type": "TA" }, "geometry": { "type": "Point", "coordinates": [ -81.5906207, 28.3578902 ] } },
{ "type": "Feature", "properties": { "Name": "Disney's Hollywood Studios", "State": "Florida", "Type": "TA" }, "geometry": { "type": "Point", "coordinates": [ -81.5590975, 28.3580628 ] } },
{ "type": "Feature", "properties": { "Name": "Rock City Gardens", "State": "Georgia", "Type": "TA" }, "geometry": { "type": "Point", "coordinates": [ -85.3501772, 34.9733918 ] } },
{ "type": "Feature", "properties": { "Name": "Georgia Aquarium", "State": "Georgia", "Type": "TA" }, "geometry": { "type": "Point", "coordinates": [ -84.3951098, 33.763382 ] } },
{ "type": "Feature", "properties": { "Name": "World of Coca-Cola", "State": "Georgia", "Type": "TA" }, "geometry": { "type": "Point", "coordinates": [ -84.392436, 33.7625564 ] } },
{ "type": "Feature", "properties": { "Name": "Stone Mountain Park", "State": "Georgia", "Type": "TA" }, "geometry": { "type": "Point", "coordinates": [ -84.1455315, 33.8053189 ] } },
{ "type": "Feature", "properties": { "Name": "Atlanta Botanical Garden", "State": "Georgia", "Type": "TA" }, "geometry": { "type": "Point", "coordinates": [ -84.3725988, 33.7899568 ] } },
{ "type": "Feature", "properties": { "Name": "Pemberton Place", "State": "Georgia", "Type": "TA" }, "geometry": { "type": "Point", "coordinates": [ -84.3938264, 33.763396 ] } },
{ "type": "Feature", "properties": { "Name": "Golden Isles Convention & Visitors Bureau", "State": "Georgia", "Type": "TA" }, "geometry": { "type": "Point", "coordinates": [ -81.3947542, 31.1354542 ] } },
{ "type": "Feature", "properties": { "Name": "Jimmy Carter National Historical Park", "State": "Georgia", "Type": "TA" }, "geometry": { "type": "Point", "coordinates": [ -84.3925808, 32.0363596 ] } },
{ "type": "Feature", "properties": { "Name": "Ocmulgee Mounds National Historical Park", "State": "Georgia", "Type": "TA" }, "geometry": { "type": "Point", "coordinates": [ -83.6020624, 32.8381287 ] } },
{ "type": "Feature", "properties": { "Name": "Savannah Historic District", "State": "Georgia", "Type": "TA" }, "geometry": { "type": "Point", "coordinates": [ -81.0990665, 32.0761493 ] } },
{ "type": "Feature", "properties": { "Name": "Andersonville National Historic Site", "State": "Georgia", "Type": "TA" }, "geometry": { "type": "Point", "coordinates": [ -84.1303207, 32.2002948 ] } },
{ "type": "Feature", "properties": { "Name": "Wormsloe Historic Site", "State": "Georgia", "Type": "TA" }, "geometry": { "type": "Point", "coordinates": [ -81.069243, 31.9801931 ] } },
{ "type": "Feature", "properties": { "Name": "Savannah's Waterfront", "State": "Georgia", "Type": "TA" }, "geometry": { "type": "Point", "coordinates": [ -81.0918493, 32.0818497 ] } },
{ "type": "Feature", "properties": { "Name": "Ships Of The Sea Maritime Museum", "State": "Georgia", "Type": "TA" }, "geometry": { "type": "Point", "coordinates": [ -81.0973321, 32.0811213 ] } },
{ "type": "Feature", "properties": { "Name": "Fort McAllister State Park", "State": "Georgia", "Type": "TA" }, "geometry": { "type": "Point", "coordinates": [ -81.1957656, 31.8911655 ] } },
{ "type": "Feature", "properties": { "Name": "Okefenokee Swamp Park", "State": "Georgia", "Type": "TA" }, "geometry": { "type": "Point", "coordinates": [ -82.272327, 31.056794 ] } },
{ "type": "Feature", "properties": { "Name": "Piedmont Park", "State": "Georgia", "Type": "TA" }, "geometry": { "type": "Point", "coordinates": [ -84.3719824, 33.7885307 ] } },
{ "type": "Feature", "properties": { "Name": "Providence Canyon State Park", "State": "Georgia", "Type": "TA" }, "geometry": { "type": "Point", "coordinates": [ -84.9143151, 32.0689195 ] } },
{ "type": "Feature", "properties": { "Name": "Historic Square", "State": "Georgia", "Type": "TA" }, "geometry": { "type": "Point", "coordinates": [ -84.1447363, 33.8154335 ] } },
{ "type": "Feature", "properties": { "Name": "Arabia Mountain National Heritage Area", "State": "Georgia", "Type": "TA" }, "geometry": { "type": "Point", "coordinates": [ -84.1196447, 33.6678417 ] } },
{ "type": "Feature", "properties": { "Name": "Hawaiʻi Volcanoes National Park", "State": "Hawaii", "Type": "TA" }, "geometry": { "type": "Point", "coordinates": [ -155.288496900000013, 19.4193697 ] } },
{ "type": "Feature", "properties": { "Name": "Polynesian Cultural Center", "State": "Hawaii", "Type": "TA" }, "geometry": { "type": "Point", "coordinates": [ -157.9213677, 21.6407226 ] } },
{ "type": "Feature", "properties": { "Name": "Nā Pali Coast State Wilderness Park", "State": "Hawaii", "Type": "TA" }, "geometry": { "type": "Point", "coordinates": [ -159.639244100000013, 22.1667399 ] } },
{ "type": "Feature", "properties": { "Name": "Iolani Palace", "State": "Hawaii", "Type": "TA" }, "geometry": { "type": "Point", "coordinates": [ -157.858719900000011, 21.3068079 ] } },
{ "type": "Feature", "properties": { "Name": "Akaka Falls State Park", "State": "Hawaii", "Type": "TA" }, "geometry": { "type": "Point", "coordinates": [ -155.1521859, 19.8539 ] } },
{ "type": "Feature", "properties": { "Name": "Waimea Canyon State Park", "State": "Hawaii", "Type": "TA" }, "geometry": { "type": "Point", "coordinates": [ -159.6656013, 22.0726785 ] } },
{ "type": "Feature", "properties": { "Name": "Kaloko-Honokōhau National Historical Park", "State": "Hawaii", "Type": "TA" }, "geometry": { "type": "Point", "coordinates": [ -156.0216868, 19.6778522 ] } },
{ "type": "Feature", "properties": { "Name": "Pololū Valley Lookout", "State": "Hawaii", "Type": "TA" }, "geometry": { "type": "Point", "coordinates": [ -155.7338497, 20.2035807 ] } },
{ "type": "Feature", "properties": { "Name": "Waipiʻo Valley Lookout", "State": "Hawaii", "Type": "TA" }, "geometry": { "type": "Point", "coordinates": [ -155.584348, 20.1180193 ] } },
{ "type": "Feature", "properties": { "Name": "Buddha Point", "State": "Hawaii", "Type": "TA" }, "geometry": { "type": "Point", "coordinates": [ -155.8888024, 19.9282489 ] } },
{ "type": "Feature", "properties": { "Name": "Haleakalā National Park", "State": "Hawaii", "Type": "TA" }, "geometry": { "type": "Point", "coordinates": [ -156.1551524, 20.7203826 ] } },
{ "type": "Feature", "properties": { "Name": "Pu'ukohola Heiau National Historic Site", "State": "Hawaii", "Type": "TA" }, "geometry": { "type": "Point", "coordinates": [ -155.821779, 20.0255752 ] } },
{ "type": "Feature", "properties": { "Name": "Lapakahi State Historical Park", "State": "Hawaii", "Type": "TA" }, "geometry": { "type": "Point", "coordinates": [ -155.8971655, 20.1746174 ] } },
{ "type": "Feature", "properties": { "Name": "Kahalu’u Beach Park", "State": "Hawaii", "Type": "TA" }, "geometry": { "type": "Point", "coordinates": [ -155.9666712, 19.5792662 ] } },
{ "type": "Feature", "properties": { "Name": "Wailuku River State Park", "State": "Hawaii", "Type": "TA" }, "geometry": { "type": "Point", "coordinates": [ -155.1085773, 19.7187242 ] } },
{ "type": "Feature", "properties": { "Name": "Nāpō’opo’o Pier", "State": "Hawaii", "Type": "TA" }, "geometry": { "type": "Point", "coordinates": [ -155.918821, 19.4737814 ] } },
{ "type": "Feature", "properties": { "Name": "Kiholo Bay", "State": "Hawaii", "Type": "TA" }, "geometry": { "type": "Point", "coordinates": [ -155.921744600000011, 19.8563675 ] } },
{ "type": "Feature", "properties": { "Name": "Hulihe‘e Palace", "State": "Hawaii", "Type": "TA" }, "geometry": { "type": "Point", "coordinates": [ -155.9943168, 19.6393501 ] } },
{ "type": "Feature", "properties": { "Name": "Upper Waikani Falls", "State": "Hawaii", "Type": "TA" }, "geometry": { "type": "Point", "coordinates": [ -156.1388433, 20.8323667 ] } },
{ "type": "Feature", "properties": { "Name": "Moku Ola / Coconut Island", "State": "Hawaii", "Type": "TA" }, "geometry": { "type": "Point", "coordinates": [ -155.068554, 19.7294599 ] } },
{ "type": "Feature", "properties": { "Name": "Kirkham Hot Springs", "State": "Idaho", "Type": "TA" }, "geometry": { "type": "Point", "coordinates": [ -115.5456239, 44.0724188 ] } },
{ "type": "Feature", "properties": { "Name": "Shoshone Falls Park", "State": "Idaho", "Type": "TA" }, "geometry": { "type": "Point", "coordinates": [ -114.401, 42.5937 ] } },
{ "type": "Feature", "properties": { "Name": "Eagle Rock Fountain", "State": "Idaho", "Type": "TA" }, "geometry": { "type": "Point", "coordinates": [ -112.0497842, 43.488604 ] } },
{ "type": "Feature", "properties": { "Name": "Cleo's Ferry Museum & Nature Trail", "State": "Idaho", "Type": "TA" }, "geometry": { "type": "Point", "coordinates": [ -116.6003415, 43.3416351 ] } },
{ "type": "Feature", "properties": { "Name": "Shoshone Ice Caves", "State": "Idaho", "Type": "TA" }, "geometry": { "type": "Point", "coordinates": [ -114.338743, 43.1650084 ] } },
{ "type": "Feature", "properties": { "Name": "Sawtooth National Forest", "State": "Idaho", "Type": "TA" }, "geometry": { "type": "Point", "coordinates": [ -114.7163589, 43.5534178 ] } },
{ "type": "Feature", "properties": { "Name": "City of Rocks National Reserve", "State": "Idaho", "Type": "TA" }, "geometry": { "type": "Point", "coordinates": [ -113.7037854, 42.0727057 ] } },
{ "type": "Feature", "properties": { "Name": "Giant Eagle Waterfall Nest", "State": "Idaho", "Type": "TA" }, "geometry": { "type": "Point", "coordinates": [ -112.0493597, 43.4881441 ] } },
{ "type": "Feature", "properties": { "Name": "Idaho Botanical Garden", "State": "Idaho", "Type": "TA" }, "geometry": { "type": "Point", "coordinates": [ -116.1639284, 43.6017855 ] } },
{ "type": "Feature", "properties": { "Name": "Balanced Rock Park", "State": "Idaho", "Type": "TA" }, "geometry": { "type": "Point", "coordinates": [ -114.9571861, 42.5487681 ] } },
{ "type": "Feature", "properties": { "Name": "Eagle Island State Park", "State": "Idaho", "Type": "TA" }, "geometry": { "type": "Point", "coordinates": [ -116.3963269, 43.6848469 ] } },
{ "type": "Feature", "properties": { "Name": "Hyde Park", "State": "Idaho", "Type": "TA" }, "geometry": { "type": "Point", "coordinates": [ -116.2034671, 43.6301133 ] } },
{ "type": "Feature", "properties": { "Name": "Old Idaho Penitentiary Site", "State": "Idaho", "Type": "TA" }, "geometry": { "type": "Point", "coordinates": [ -116.161974, 43.6028515 ] } },
{ "type": "Feature", "properties": { "Name": "Julia Davis Park", "State": "Idaho", "Type": "TA" }, "geometry": { "type": "Point", "coordinates": [ -116.2014806, 43.6071131 ] } },
{ "type": "Feature", "properties": { "Name": "Love Lock Pier View- River Walk", "State": "Idaho", "Type": "TA" }, "geometry": { "type": "Point", "coordinates": [ -112.0504718, 43.4835846 ] } },
{ "type": "Feature", "properties": { "Name": "Centennial Waterfront Park", "State": "Idaho", "Type": "TA" }, "geometry": { "type": "Point", "coordinates": [ -114.4685313, 42.5995599 ] } },
{ "type": "Feature", "properties": { "Name": "Lucky Peak State Park", "State": "Idaho", "Type": "TA" }, "geometry": { "type": "Point", "coordinates": [ -116.0593412, 43.530185 ] } },
{ "type": "Feature", "properties": { "Name": "Thousand Springs State Park & Hagerman Fossil Beds National Monument, Visitor's Center", "State": "Idaho", "Type": "TA" }, "geometry": { "type": "Point", "coordinates": [ -114.8919477, 42.8318046 ] } },
{ "type": "Feature", "properties": { "Name": "Evel Knievel Snake River Canyon Jump Site", "State": "Idaho", "Type": "TA" }, "geometry": { "type": "Point", "coordinates": [ -114.4228668, 42.5970726 ] } },
{ "type": "Feature", "properties": { "Name": "Collectors Corner Museum", "State": "Idaho", "Type": "TA" }, "geometry": { "type": "Point", "coordinates": [ -112.0137034, 43.4934334 ] } },
{ "type": "Feature", "properties": { "Name": "Willis Tower", "State": "Illinois", "Type": "TA" }, "geometry": { "type": "Point", "coordinates": [ -87.6359149, 41.8788764 ] } },
{ "type": "Feature", "properties": { "Name": "Navy Pier", "State": "Illinois", "Type": "TA" }, "geometry": { "type": "Point", "coordinates": [ -87.6050944, 41.8918633 ] } },
{ "type": "Feature", "properties": { "Name": "Cahokia Mounds State Historic Site", "State": "Illinois", "Type": "TA" }, "geometry": { "type": "Point", "coordinates": [ -90.0618228, 38.6550643 ] } },
{ "type": "Feature", "properties": { "Name": "Lincoln Home National Historic Site", "State": "Illinois", "Type": "TA" }, "geometry": { "type": "Point", "coordinates": [ -89.6451179, 39.7971412 ] } },
{ "type": "Feature", "properties": { "Name": "Grosse Point Lighthouse", "State": "Illinois", "Type": "TA" }, "geometry": { "type": "Point", "coordinates": [ -87.6762674, 42.0638876 ] } },
{ "type": "Feature", "properties": { "Name": "Illinois State Museum", "State": "Illinois", "Type": "TA" }, "geometry": { "type": "Point", "coordinates": [ -89.6556548, 39.7966735 ] } },
{ "type": "Feature", "properties": { "Name": "Shedd Aquarium", "State": "Illinois", "Type": "TA" }, "geometry": { "type": "Point", "coordinates": [ -87.614038, 41.8675726 ] } },
{ "type": "Feature", "properties": { "Name": "Starved Rock State Park", "State": "Illinois", "Type": "TA" }, "geometry": { "type": "Point", "coordinates": [ -89.0059819, 41.3192311 ] } },
{ "type": "Feature", "properties": { "Name": "World's Largest Pitchfork", "State": "Illinois", "Type": "TA" }, "geometry": { "type": "Point", "coordinates": [ -87.978876, 39.315441799999988 ] } },
{ "type": "Feature", "properties": { "Name": "Millennium Park", "State": "Illinois", "Type": "TA" }, "geometry": { "type": "Point", "coordinates": [ -87.6225514, 41.8825524 ] } },
{ "type": "Feature", "properties": { "Name": "Lincoln Park Zoo", "State": "Illinois", "Type": "TA" }, "geometry": { "type": "Point", "coordinates": [ -87.6336403, 41.921703 ] } },
{ "type": "Feature", "properties": { "Name": "Leaning Tower of Niles", "State": "Illinois", "Type": "TA" }, "geometry": { "type": "Point", "coordinates": [ -87.7840517, 42.0124447 ] } },
{ "type": "Feature", "properties": { "Name": "Cloud Gate", "State": "Illinois", "Type": "TA" }, "geometry": { "type": "Point", "coordinates": [ -87.6233039, 41.8826572 ] } },
{ "type": "Feature", "properties": { "Name": "Lincoln Home National Historic Site Visitor Center", "State": "Illinois", "Type": "TA" }, "geometry": { "type": "Point", "coordinates": [ -89.6463024, 39.7975038 ] } },
{ "type": "Feature", "properties": { "Name": "Buckingham Fountain", "State": "Illinois", "Type": "TA" }, "geometry": { "type": "Point", "coordinates": [ -87.6189483, 41.8757944 ] } },
{ "type": "Feature", "properties": { "Name": "Matthiessen State Park", "State": "Illinois", "Type": "TA" }, "geometry": { "type": "Point", "coordinates": [ -89.0244476, 41.2959796 ] } },
{ "type": "Feature", "properties": { "Name": "Skydeck Chicago", "State": "Illinois", "Type": "TA" }, "geometry": { "type": "Point", "coordinates": [ -87.635915, 41.8788761 ] } },
{ "type": "Feature", "properties": { "Name": "Dana-Thomas House", "State": "Illinois", "Type": "TA" }, "geometry": { "type": "Point", "coordinates": [ -89.6515323, 39.7940495 ] } },
{ "type": "Feature", "properties": { "Name": "Shawnee National Forest", "State": "Illinois", "Type": "TA" }, "geometry": { "type": "Point", "coordinates": [ -89.389057, 37.5625354 ] } },
{ "type": "Feature", "properties": { "Name": "Walt Disney Birthplace Home", "State": "Illinois", "Type": "TA" }, "geometry": { "type": "Point", "coordinates": [ -87.7330056, 41.9206283 ] } },
{ "type": "Feature", "properties": { "Name": "White River State Park", "State": "Indiana", "Type": "TA" }, "geometry": { "type": "Point", "coordinates": [ -86.1707858, 39.7665464 ] } },
{ "type": "Feature", "properties": { "Name": "Indiana Dunes National Park", "State": "Indiana", "Type": "TA" }, "geometry": { "type": "Point", "coordinates": [ -87.0524338, 41.6532678 ] } },
{ "type": "Feature", "properties": { "Name": "Indianapolis Zoo", "State": "Indiana", "Type": "TA" }, "geometry": { "type": "Point", "coordinates": [ -86.1770616, 39.7667313 ] } },
{ "type": "Feature", "properties": { "Name": "Indiana State Museum", "State": "Indiana", "Type": "TA" }, "geometry": { "type": "Point", "coordinates": [ -86.1695013, 39.7683919 ] } },
{ "type": "Feature", "properties": { "Name": "The Children's Museum of Indianapolis", "State": "Indiana", "Type": "TA" }, "geometry": { "type": "Point", "coordinates": [ -86.1578917, 39.8106132 ] } },
{ "type": "Feature", "properties": { "Name": "Eiteljorg Museum", "State": "Indiana", "Type": "TA" }, "geometry": { "type": "Point", "coordinates": [ -86.1677915, 39.7685754 ] } },
{ "type": "Feature", "properties": { "Name": "Indiana War Memorial & Museum", "State": "Indiana", "Type": "TA" }, "geometry": { "type": "Point", "coordinates": [ -86.1569508, 39.7733607 ] } },
{ "type": "Feature", "properties": { "Name": "Indianapolis Motor Speedway Museum", "State": "Indiana", "Type": "TA" }, "geometry": { "type": "Point", "coordinates": [ -86.2336611, 39.790314599999988 ] } },
{ "type": "Feature", "properties": { "Name": "Eagle Creek Park", "State": "Indiana", "Type": "TA" }, "geometry": { "type": "Point", "coordinates": [ -86.296203, 39.873789 ] } },
{ "type": "Feature", "properties": { "Name": "Catacombs", "State": "Indiana", "Type": "TA" }, "geometry": { "type": "Point", "coordinates": [ -86.1534198, 39.7687329 ] } },
{ "type": "Feature", "properties": { "Name": "Wolf Park", "State": "Indiana", "Type": "TA" }, "geometry": { "type": "Point", "coordinates": [ -86.830575, 40.533986 ] } },
{ "type": "Feature", "properties": { "Name": "Benjamin Harrison Presidential Site", "State": "Indiana", "Type": "TA" }, "geometry": { "type": "Point", "coordinates": [ -86.1545781, 39.7840704 ] } },
{ "type": "Feature", "properties": { "Name": "Prophetstown State Park", "State": "Indiana", "Type": "TA" }, "geometry": { "type": "Point", "coordinates": [ -86.842217, 40.4973299 ] } },
{ "type": "Feature", "properties": { "Name": "Holliday Park", "State": "Indiana", "Type": "TA" }, "geometry": { "type": "Point", "coordinates": [ -86.1634943, 39.8708933 ] } },
{ "type": "Feature", "properties": { "Name": "Oldfields–Lilly House & Gardens", "State": "Indiana", "Type": "TA" }, "geometry": { "type": "Point", "coordinates": [ -86.1854796, 39.8283758 ] } },
{ "type": "Feature", "properties": { "Name": "Hannah House", "State": "Indiana", "Type": "TA" }, "geometry": { "type": "Point", "coordinates": [ -86.142717, 39.711353 ] } },
{ "type": "Feature", "properties": { "Name": "Military Park", "State": "Indiana", "Type": "TA" }, "geometry": { "type": "Point", "coordinates": [ -86.1687006, 39.77059 ] } },
{ "type": "Feature", "properties": { "Name": "Indianapolis Canal Walk", "State": "Indiana", "Type": "TA" }, "geometry": { "type": "Point", "coordinates": [ -86.165168, 39.7752036 ] } },
{ "type": "Feature", "properties": { "Name": "Conner Prairie", "State": "Indiana", "Type": "TA" }, "geometry": { "type": "Point", "coordinates": [ -86.0287784, 39.9845164 ] } },
{ "type": "Feature", "properties": { "Name": "Virginia B. Fairbanks Art & Nature Park", "State": "Indiana", "Type": "TA" }, "geometry": { "type": "Point", "coordinates": [ -86.1894275, 39.825996 ] } },
{ "type": "Feature", "properties": { "Name": "Herbert Hoover National Historic Site", "State": "Iowa", "Type": "TA" }, "geometry": { "type": "Point", "coordinates": [ -91.3469153, 41.6702571 ] } },
{ "type": "Feature", "properties": { "Name": "Shrine of the Grotto of the Redemption", "State": "Iowa", "Type": "TA" }, "geometry": { "type": "Point", "coordinates": [ -94.4457145, 42.9639362 ] } },
{ "type": "Feature", "properties": { "Name": "Blank Park Zoo", "State": "Iowa", "Type": "TA" }, "geometry": { "type": "Point", "coordinates": [ -93.6244982, 41.5209593 ] } },
{ "type": "Feature", "properties": { "Name": "Maquoketa Caves State Park", "State": "Iowa", "Type": "TA" }, "geometry": { "type": "Point", "coordinates": [ -90.7660557, 42.1201868 ] } },
{ "type": "Feature", "properties": { "Name": "Amana Colonies", "State": "Iowa", "Type": "TA" }, "geometry": { "type": "Point", "coordinates": [ -91.86808, 41.7999755 ] } },
{ "type": "Feature", "properties": { "Name": "Pappajohn Sculpture Park", "State": "Iowa", "Type": "TA" }, "geometry": { "type": "Point", "coordinates": [ -93.6352944, 41.5851577 ] } },
{ "type": "Feature", "properties": { "Name": "The Voyage Home Museum", "State": "Iowa", "Type": "TA" }, "geometry": { "type": "Point", "coordinates": [ -91.5765513, 41.4807766 ] } },
{ "type": "Feature", "properties": { "Name": "Cordova Observation Tower", "State": "Iowa", "Type": "TA" }, "geometry": { "type": "Point", "coordinates": [ -93.0880422, 41.4231743 ] } },
{ "type": "Feature", "properties": { "Name": "National Mississippi River Museum & Aquarium", "State": "Iowa", "Type": "TA" }, "geometry": { "type": "Point", "coordinates": [ -90.6614082, 42.4968952 ] } },
{ "type": "Feature", "properties": { "Name": "Indian Creek Nature Center", "State": "Iowa", "Type": "TA" }, "geometry": { "type": "Point", "coordinates": [ -91.589038, 41.966607 ] } },
{ "type": "Feature", "properties": { "Name": "Pikes Peak State Park", "State": "Iowa", "Type": "TA" }, "geometry": { "type": "Point", "coordinates": [ -91.1659498, 42.9955083 ] } },
{ "type": "Feature", "properties": { "Name": "Old Capitol Museum", "State": "Iowa", "Type": "TA" }, "geometry": { "type": "Point", "coordinates": [ -91.5362258, 41.6612791 ] } },
{ "type": "Feature", "properties": { "Name": "The Klokkenspel", "State": "Iowa", "Type": "TA" }, "geometry": { "type": "Point", "coordinates": [ -92.9157225, 41.4065735 ] } },
{ "type": "Feature", "properties": { "Name": "Effigy Mounds National Monument", "State": "Iowa", "Type": "TA" }, "geometry": { "type": "Point", "coordinates": [ -91.2006419, 43.089214 ] } },
{ "type": "Feature", "properties": { "Name": "Smiley Face Water Tower", "State": "Iowa", "Type": "TA" }, "geometry": { "type": "Point", "coordinates": [ -94.6396575, 41.4965019 ] } },
{ "type": "Feature", "properties": { "Name": "World's Largest Concrete Gnome", "State": "Iowa", "Type": "TA" }, "geometry": { "type": "Point", "coordinates": [ -93.6391612, 42.009708 ] } },
{ "type": "Feature", "properties": { "Name": "Terrace Hill Historic Site", "State": "Iowa", "Type": "TA" }, "geometry": { "type": "Point", "coordinates": [ -93.6491288, 41.5833006 ] } },
{ "type": "Feature", "properties": { "Name": "World's Largest Popcorn Ball", "State": "Iowa", "Type": "TA" }, "geometry": { "type": "Point", "coordinates": [ -94.9999576, 42.422546399999987 ] } },
{ "type": "Feature", "properties": { "Name": "National Czech & Slovak Museum & Library", "State": "Iowa", "Type": "TA" }, "geometry": { "type": "Point", "coordinates": [ -91.661781499999989, 41.9661655 ] } },
{ "type": "Feature", "properties": { "Name": "Tree in the Road", "State": "Iowa", "Type": "TA" }, "geometry": { "type": "Point", "coordinates": [ -94.8350469, 41.5044191 ] } },
{ "type": "Feature", "properties": { "Name": "The Keeper of the Plains", "State": "Kansas", "Type": "TA" }, "geometry": { "type": "Point", "coordinates": [ -97.349716199999989, 37.6913539 ] } },
{ "type": "Feature", "properties": { "Name": "Exploration Place", "State": "Kansas", "Type": "TA" }, "geometry": { "type": "Point", "coordinates": [ -97.3479609, 37.6894665 ] } },
{ "type": "Feature", "properties": { "Name": "Fort Larned National Historic Site", "State": "Kansas", "Type": "TA" }, "geometry": { "type": "Point", "coordinates": [ -99.2180828, 38.1830965 ] } },
{ "type": "Feature", "properties": { "Name": "World's Largest Things, Inc.", "State": "Kansas", "Type": "TA" }, "geometry": { "type": "Point", "coordinates": [ -98.5378387, 39.057584899999988 ] } },
{ "type": "Feature", "properties": { "Name": "Monument Rocks", "State": "Kansas", "Type": "TA" }, "geometry": { "type": "Point", "coordinates": [ -100.7641158, 38.7954826 ] } },
{ "type": "Feature", "properties": { "Name": "Overland Park Arboretum & Botanical Gardens", "State": "Kansas", "Type": "TA" }, "geometry": { "type": "Point", "coordinates": [ -94.6910209, 38.7978207 ] } },
{ "type": "Feature", "properties": { "Name": "Old Cowtown Museum", "State": "Kansas", "Type": "TA" }, "geometry": { "type": "Point", "coordinates": [ -97.360026, 37.693304 ] } },
{ "type": "Feature", "properties": { "Name": "Dorothy's House and the Land of Oz", "State": "Kansas", "Type": "TA" }, "geometry": { "type": "Point", "coordinates": [ -100.9106046, 37.034549299999988 ] } },
{ "type": "Feature", "properties": { "Name": "Botanica, The Wichita Gardens", "State": "Kansas", "Type": "TA" }, "geometry": { "type": "Point", "coordinates": [ -97.3634268, 37.6964476 ] } },
{ "type": "Feature", "properties": { "Name": "Coronado Heights Castle", "State": "Kansas", "Type": "TA" }, "geometry": { "type": "Point", "coordinates": [ -97.703217099999989, 38.6129915 ] } },
{ "type": "Feature", "properties": { "Name": "Big Well Museum", "State": "Kansas", "Type": "TA" }, "geometry": { "type": "Point", "coordinates": [ -99.2944379, 37.603412 ] } },
{ "type": "Feature", "properties": { "Name": "S. P. Dinsmoor's Garden of Eden", "State": "Kansas", "Type": "TA" }, "geometry": { "type": "Point", "coordinates": [ -98.5351178, 39.057952 ] } },
{ "type": "Feature", "properties": { "Name": "Rock City Park", "State": "Kansas", "Type": "TA" }, "geometry": { "type": "Point", "coordinates": [ -97.7353314, 39.0907091 ] } },
{ "type": "Feature", "properties": { "Name": "Evel Knievel Museum", "State": "Kansas", "Type": "TA" }, "geometry": { "type": "Point", "coordinates": [ -95.6835731, 39.0301815 ] } },
{ "type": "Feature", "properties": { "Name": "Nicodemus National Historic Site", "State": "Kansas", "Type": "TA" }, "geometry": { "type": "Point", "coordinates": [ -99.6146764, 39.3933596 ] } },
{ "type": "Feature", "properties": { "Name": "C. W. Parker Carousel Museum", "State": "Kansas", "Type": "TA" }, "geometry": { "type": "Point", "coordinates": [ -94.9093759, 39.3172535 ] } },
{ "type": "Feature", "properties": { "Name": "Pillsbury Crossing Wildlife Area", "State": "Kansas", "Type": "TA" }, "geometry": { "type": "Point", "coordinates": [ -96.4400172, 39.1290964 ] } },
{ "type": "Feature", "properties": { "Name": "World's Largest Ball of Twine", "State": "Kansas", "Type": "TA" }, "geometry": { "type": "Point", "coordinates": [ -98.433691599999989, 39.5092526 ] } },
{ "type": "Feature", "properties": { "Name": "Museum at Prairiefire", "State": "Kansas", "Type": "TA" }, "geometry": { "type": "Point", "coordinates": [ -94.6520905, 38.8819446 ] } },
{ "type": "Feature", "properties": { "Name": "Sedgwick County Zoo", "State": "Kansas", "Type": "TA" }, "geometry": { "type": "Point", "coordinates": [ -97.4085122, 37.7170496 ] } },
{ "type": "Feature", "properties": { "Name": "Louisville Mega Cavern", "State": "Kentucky", "Type": "TA" }, "geometry": { "type": "Point", "coordinates": [ -85.703929, 38.2012259 ] } },
{ "type": "Feature", "properties": { "Name": "Lost River Cave", "State": "Kentucky", "Type": "TA" }, "geometry": { "type": "Point", "coordinates": [ -86.4740113, 36.9532573 ] } },
{ "type": "Feature", "properties": { "Name": "Abraham Lincoln Birthplace National Historical Park", "State": "Kentucky", "Type": "TA" }, "geometry": { "type": "Point", "coordinates": [ -85.7374931, 37.5311219 ] } },
{ "type": "Feature", "properties": { "Name": "Hidden River Cave & American Cave Museum", "State": "Kentucky", "Type": "TA" }, "geometry": { "type": "Point", "coordinates": [ -85.9058672, 37.1793602 ] } },
{ "type": "Feature", "properties": { "Name": "Ark Encounter", "State": "Kentucky", "Type": "TA" }, "geometry": { "type": "Point", "coordinates": [ -84.5796256, 38.629256 ] } },
{ "type": "Feature", "properties": { "Name": "Churchill Downs", "State": "Kentucky", "Type": "TA" }, "geometry": { "type": "Point", "coordinates": [ -85.7723988, 38.2037252 ] } },
{ "type": "Feature", "properties": { "Name": "Old Fort Harrod State Park", "State": "Kentucky", "Type": "TA" }, "geometry": { "type": "Point", "coordinates": [ -84.846999, 37.7619007 ] } },
{ "type": "Feature", "properties": { "Name": "Kentucky Derby Museum", "State": "Kentucky", "Type": "TA" }, "geometry": { "type": "Point", "coordinates": [ -85.7710699, 38.2054621 ] } },
{ "type": "Feature", "properties": { "Name": "Cumberland Falls State Resort Park", "State": "Kentucky", "Type": "TA" }, "geometry": { "type": "Point", "coordinates": [ -84.33862, 36.83866 ] } },
{ "type": "Feature", "properties": { "Name": "Mammoth Cave National Park", "State": "Kentucky", "Type": "TA" }, "geometry": { "type": "Point", "coordinates": [ -86.1505273, 37.181531 ] } },
{ "type": "Feature", "properties": { "Name": "Red River Gorge Geological Area", "State": "Kentucky", "Type": "TA" }, "geometry": { "type": "Point", "coordinates": [ -83.6279389, 37.813894 ] } },
{ "type": "Feature", "properties": { "Name": "Kentucky Horse Park", "State": "Kentucky", "Type": "TA" }, "geometry": { "type": "Point", "coordinates": [ -84.5198854, 38.1496243 ] } },
{ "type": "Feature", "properties": { "Name": "Dinosaur World", "State": "Kentucky", "Type": "TA" }, "geometry": { "type": "Point", "coordinates": [ -85.9810077, 37.1357317 ] } },
{ "type": "Feature", "properties": { "Name": "Thrillsville Adventure Park", "State": "Kentucky", "Type": "TA" }, "geometry": { "type": "Point", "coordinates": [ -83.6986339, 37.791074 ] } },
{ "type": "Feature", "properties": { "Name": "Kentucky Stonehenge", "State": "Kentucky", "Type": "TA" }, "geometry": { "type": "Point", "coordinates": [ -85.898599, 37.2753921 ] } },
{ "type": "Feature", "properties": { "Name": "Mary Todd Lincoln House", "State": "Kentucky", "Type": "TA" }, "geometry": { "type": "Point", "coordinates": [ -84.502738, 38.051281 ] } },
{ "type": "Feature", "properties": { "Name": "Creation Falls", "State": "Kentucky", "Type": "TA" }, "geometry": { "type": "Point", "coordinates": [ -83.5614739, 37.769436 ] } },
{ "type": "Feature", "properties": { "Name": "Waveland State Historic Site", "State": "Kentucky", "Type": "TA" }, "geometry": { "type": "Point", "coordinates": [ -84.5374389, 37.9712657 ] } },
{ "type": "Feature", "properties": { "Name": "Kentucky Reptile Zoo", "State": "Kentucky", "Type": "TA" }, "geometry": { "type": "Point", "coordinates": [ -83.7039447, 37.7931738 ] } },
{ "type": "Feature", "properties": { "Name": "Liberty Hall Historic Site", "State": "Kentucky", "Type": "TA" }, "geometry": { "type": "Point", "coordinates": [ -84.881201, 38.199828 ] } },
{ "type": "Feature", "properties": { "Name": "Oak Alley Plantation", "State": "Louisiana", "Type": "TA" }, "geometry": { "type": "Point", "coordinates": [ -90.7759972, 30.0042359 ] } },
{ "type": "Feature", "properties": { "Name": "Rosedown Plantation State Historic Site", "State": "Louisiana", "Type": "TA" }, "geometry": { "type": "Point", "coordinates": [ -91.3715244, 30.797671 ] } },
{ "type": "Feature", "properties": { "Name": "Melrose Plantation", "State": "Louisiana", "Type": "TA" }, "geometry": { "type": "Point", "coordinates": [ -92.9667957, 31.5997743 ] } },
{ "type": "Feature", "properties": { "Name": "USS KIDD Veterans Museum", "State": "Louisiana", "Type": "TA" }, "geometry": { "type": "Point", "coordinates": [ -91.1901506, 30.4435997 ] } },
{ "type": "Feature", "properties": { "Name": "Poverty Point World Heritage Site", "State": "Louisiana", "Type": "TA" }, "geometry": { "type": "Point", "coordinates": [ -91.4035019, 32.6362244 ] } },
{ "type": "Feature", "properties": { "Name": "Jungle Gardens", "State": "Louisiana", "Type": "TA" }, "geometry": { "type": "Point", "coordinates": [ -91.906309, 29.912901 ] } },
{ "type": "Feature", "properties": { "Name": "Louisiana's Old State Capitol", "State": "Louisiana", "Type": "TA" }, "geometry": { "type": "Point", "coordinates": [ -91.1890457, 30.4466551 ] } },
{ "type": "Feature", "properties": { "Name": "Autrey House Museum", "State": "Louisiana", "Type": "TA" }, "geometry": { "type": "Point", "coordinates": [ -92.6754615, 32.700867 ] } },
{ "type": "Feature", "properties": { "Name": "Louisiana Swamp Tours", "State": "Louisiana", "Type": "TA" }, "geometry": { "type": "Point", "coordinates": [ -91.9074811, 30.224459 ] } },
{ "type": "Feature", "properties": { "Name": "Gator Chateau", "State": "Louisiana", "Type": "TA" }, "geometry": { "type": "Point", "coordinates": [ -92.6669786, 30.2475296 ] } },
{ "type": "Feature", "properties": { "Name": "Abita Mystery House / UCM Museum", "State": "Louisiana", "Type": "TA" }, "geometry": { "type": "Point", "coordinates": [ -90.0362456, 30.4774199 ] } },
{ "type": "Feature", "properties": { "Name": "Capitol Park Museum", "State": "Louisiana", "Type": "TA" }, "geometry": { "type": "Point", "coordinates": [ -91.186652, 30.4540227 ] } },
{ "type": "Feature", "properties": { "Name": "Cajun Country Swamp Tours", "State": "Louisiana", "Type": "TA" }, "geometry": { "type": "Point", "coordinates": [ -91.9057545, 30.2226879 ] } },
{ "type": "Feature", "properties": { "Name": "New Orleans City Park", "State": "Louisiana", "Type": "TA" }, "geometry": { "type": "Point", "coordinates": [ -90.0924294, 30.0033993 ] } },
{ "type": "Feature", "properties": { "Name": "Louisiana Children's Museum", "State": "Louisiana", "Type": "TA" }, "geometry": { "type": "Point", "coordinates": [ -90.0939806, 29.9898444 ] } },
{ "type": "Feature", "properties": { "Name": "Lake Martin, LA", "State": "Louisiana", "Type": "TA" }, "geometry": { "type": "Point", "coordinates": [ -91.9064559, 30.222078 ] } },
{ "type": "Feature", "properties": { "Name": "Louisiana State University Rural Life Museum", "State": "Louisiana", "Type": "TA" }, "geometry": { "type": "Point", "coordinates": [ -91.115568900000014, 30.4118677 ] } },
{ "type": "Feature", "properties": { "Name": "Bonnie & Clyde Ambush Museum", "State": "Louisiana", "Type": "TA" }, "geometry": { "type": "Point", "coordinates": [ -93.053152, 32.5447632 ] } },
{ "type": "Feature", "properties": { "Name": "BREC's Baton Rouge Zoo", "State": "Louisiana", "Type": "TA" }, "geometry": { "type": "Point", "coordinates": [ -91.1598016, 30.5623203 ] } },
{ "type": "Feature", "properties": { "Name": "Swamp Tours of Acadiana", "State": "Louisiana", "Type": "TA" }, "geometry": { "type": "Point", "coordinates": [ -91.9028164, 30.2205681 ] } },
{ "type": "Feature", "properties": { "Name": "Portland Head Light", "State": "Maine", "Type": "TA" }, "geometry": { "type": "Point", "coordinates": [ -70.207882400000017, 43.6230726 ] } },
{ "type": "Feature", "properties": { "Name": "Pemaquid Point Lighthouse", "State": "Maine", "Type": "TA" }, "geometry": { "type": "Point", "coordinates": [ -69.506248200000016, 43.8369857 ] } },
{ "type": "Feature", "properties": { "Name": "Nubble Lighthouse", "State": "Maine", "Type": "TA" }, "geometry": { "type": "Point", "coordinates": [ -70.5912551, 43.1653241 ] } },
{ "type": "Feature", "properties": { "Name": "Thunder Hole", "State": "Maine", "Type": "TA" }, "geometry": { "type": "Point", "coordinates": [ -68.1883407, 44.3207318 ] } },
{ "type": "Feature", "properties": { "Name": "Rockland Breakwater Lighthouse", "State": "Maine", "Type": "TA" }, "geometry": { "type": "Point", "coordinates": [ -69.0775467, 44.1041137 ] } },
{ "type": "Feature", "properties": { "Name": "Bass Harbor Head Light Station", "State": "Maine", "Type": "TA" }, "geometry": { "type": "Point", "coordinates": [ -68.33730030000001, 44.2220515 ] } },
{ "type": "Feature", "properties": { "Name": "Crescent Beach State Park", "State": "Maine", "Type": "TA" }, "geometry": { "type": "Point", "coordinates": [ -70.2377596, 43.567158 ] } },
{ "type": "Feature", "properties": { "Name": "Palace Playland", "State": "Maine", "Type": "TA" }, "geometry": { "type": "Point", "coordinates": [ -70.3742203, 43.5151862 ] } },
{ "type": "Feature", "properties": { "Name": "Maine Maritime Museum", "State": "Maine", "Type": "TA" }, "geometry": { "type": "Point", "coordinates": [ -69.815918, 43.893983 ] } },
{ "type": "Feature", "properties": { "Name": "Height of Land", "State": "Maine", "Type": "TA" }, "geometry": { "type": "Point", "coordinates": [ -70.7103042, 44.8384284 ] } },
{ "type": "Feature", "properties": { "Name": "Goddard Mansion", "State": "Maine", "Type": "TA" }, "geometry": { "type": "Point", "coordinates": [ -70.2141849, 43.626492 ] } },
{ "type": "Feature", "properties": { "Name": "Fort Williams Park", "State": "Maine", "Type": "TA" }, "geometry": { "type": "Point", "coordinates": [ -70.2119708, 43.6220929 ] } },
{ "type": "Feature", "properties": { "Name": "Baxter State Park", "State": "Maine", "Type": "TA" }, "geometry": { "type": "Point", "coordinates": [ -68.9427702, 46.0273218 ] } },
{ "type": "Feature", "properties": { "Name": "Popham Beach State Park", "State": "Maine", "Type": "TA" }, "geometry": { "type": "Point", "coordinates": [ -69.797943, 43.736243599999987 ] } },
{ "type": "Feature", "properties": { "Name": "Fort Edgecomb", "State": "Maine", "Type": "TA" }, "geometry": { "type": "Point", "coordinates": [ -69.6566343, 43.9935351 ] } },
{ "type": "Feature", "properties": { "Name": "Maine Lighthouse Museum", "State": "Maine", "Type": "TA" }, "geometry": { "type": "Point", "coordinates": [ -69.1079786, 44.1020652 ] } },
{ "type": "Feature", "properties": { "Name": "Maine Wildlife Park", "State": "Maine", "Type": "TA" }, "geometry": { "type": "Point", "coordinates": [ -70.3479113, 43.9272335 ] } },
{ "type": "Feature", "properties": { "Name": "Fort Popham State Historic Site", "State": "Maine", "Type": "TA" }, "geometry": { "type": "Point", "coordinates": [ -69.7838423, 43.7549521 ] } },
{ "type": "Feature", "properties": { "Name": "Egg Rock Lighthouse", "State": "Maine", "Type": "TA" }, "geometry": { "type": "Point", "coordinates": [ -68.1381567, 44.3540474 ] } },
{ "type": "Feature", "properties": { "Name": "Birch Point State Park", "State": "Maine", "Type": "TA" }, "geometry": { "type": "Point", "coordinates": [ -69.0971803, 44.0413911 ] } },
{ "type": "Feature", "properties": { "Name": "Ocean City Boardwalk", "State": "Maryland", "Type": "TA" }, "geometry": { "type": "Point", "coordinates": [ -75.0815491, 38.3377102 ] } },
{ "type": "Feature", "properties": { "Name": "National Aquarium", "State": "Maryland", "Type": "TA" }, "geometry": { "type": "Point", "coordinates": [ -76.6083984, 39.2853928 ] } },
{ "type": "Feature", "properties": { "Name": "Fort McHenry National Monument and Historic Shrine", "State": "Maryland", "Type": "TA" }, "geometry": { "type": "Point", "coordinates": [ -76.5806414, 39.2641007 ] } },
{ "type": "Feature", "properties": { "Name": "The Maryland Zoo in Baltimore", "State": "Maryland", "Type": "TA" }, "geometry": { "type": "Point", "coordinates": [ -76.6498096, 39.3227068 ] } },
{ "type": "Feature", "properties": { "Name": "Fort Howard Park", "State": "Maryland", "Type": "TA" }, "geometry": { "type": "Point", "coordinates": [ -76.4430067, 39.1985315 ] } },
{ "type": "Feature", "properties": { "Name": "Gunpowder Falls State Park Hammerman Area", "State": "Maryland", "Type": "TA" }, "geometry": { "type": "Point", "coordinates": [ -76.3462699, 39.3609358 ] } },
{ "type": "Feature", "properties": { "Name": "The Walters Art Museum", "State": "Maryland", "Type": "TA" }, "geometry": { "type": "Point", "coordinates": [ -76.6164985, 39.296425 ] } },
{ "type": "Feature", "properties": { "Name": "Swallow Falls State Park", "State": "Maryland", "Type": "TA" }, "geometry": { "type": "Point", "coordinates": [ -79.4211567, 39.4971092 ] } },
{ "type": "Feature", "properties": { "Name": "Sandy Point State Park", "State": "Maryland", "Type": "TA" }, "geometry": { "type": "Point", "coordinates": [ -76.4040354, 39.0192353 ] } },
{ "type": "Feature", "properties": { "Name": "Annapolis Maritime Museum & Park", "State": "Maryland", "Type": "TA" }, "geometry": { "type": "Point", "coordinates": [ -76.476351, 38.9688109 ] } },
{ "type": "Feature", "properties": { "Name": "Historic Ships in Baltimore", "State": "Maryland", "Type": "TA" }, "geometry": { "type": "Point", "coordinates": [ -76.6110054, 39.2856047 ] } },
{ "type": "Feature", "properties": { "Name": "Top of the World Observation Level", "State": "Maryland", "Type": "TA" }, "geometry": { "type": "Point", "coordinates": [ -76.609474400000011, 39.2860169 ] } },
{ "type": "Feature", "properties": { "Name": "B&O Railroad Museum", "State": "Maryland", "Type": "TA" }, "geometry": { "type": "Point", "coordinates": [ -76.6326119, 39.2854681 ] } },
{ "type": "Feature", "properties": { "Name": "Holocaust Memorial", "State": "Maryland", "Type": "TA" }, "geometry": { "type": "Point", "coordinates": [ -76.6082714, 39.2880682 ] } },
{ "type": "Feature", "properties": { "Name": "Port Discovery Children's Museum", "State": "Maryland", "Type": "TA" }, "geometry": { "type": "Point", "coordinates": [ -76.60628890000001, 39.2890694 ] } },
{ "type": "Feature", "properties": { "Name": "Star-Spangled Banner National Historic Trail", "State": "Maryland", "Type": "TA" }, "geometry": { "type": "Point", "coordinates": [ -76.5796571, 39.2653412 ] } },
{ "type": "Feature", "properties": { "Name": "Banneker-Douglass Museum", "State": "Maryland", "Type": "TA" }, "geometry": { "type": "Point", "coordinates": [ -76.4936481, 38.9776149 ] } },
{ "type": "Feature", "properties": { "Name": "Terrapin Nature Park", "State": "Maryland", "Type": "TA" }, "geometry": { "type": "Point", "coordinates": [ -76.3207585, 38.9897719 ] } },
{ "type": "Feature", "properties": { "Name": "Baltimore Museum of Industry", "State": "Maryland", "Type": "TA" }, "geometry": { "type": "Point", "coordinates": [ -76.6016162, 39.2739569 ] } },
{ "type": "Feature", "properties": { "Name": "Seven Foot Knoll Lighthouse", "State": "Maryland", "Type": "TA" }, "geometry": { "type": "Point", "coordinates": [ -76.6054481, 39.2836904 ] } },
{ "type": "Feature", "properties": { "Name": "Old Sturbridge Village", "State": "Massachusetts", "Type": "TA" }, "geometry": { "type": "Point", "coordinates": [ -72.0992342, 42.1089429 ] } },
{ "type": "Feature", "properties": { "Name": "Plimoth Patuxet Museums", "State": "Massachusetts", "Type": "TA" }, "geometry": { "type": "Point", "coordinates": [ -70.6253663, 41.9380991 ] } },
{ "type": "Feature", "properties": { "Name": "Minute Man National Historical Park", "State": "Massachusetts", "Type": "TA" }, "geometry": { "type": "Point", "coordinates": [ -71.3013922, 42.4543332 ] } },
{ "type": "Feature", "properties": { "Name": "Isabella Stewart Gardner Museum", "State": "Massachusetts", "Type": "TA" }, "geometry": { "type": "Point", "coordinates": [ -71.0990577, 42.3381442 ] } },
{ "type": "Feature", "properties": { "Name": "Castle Island", "State": "Massachusetts", "Type": "TA" }, "geometry": { "type": "Point", "coordinates": [ -71.0125206, 42.3378699 ] } },
{ "type": "Feature", "properties": { "Name": "Boston Tea Party Ships & Museum", "State": "Massachusetts", "Type": "TA" }, "geometry": { "type": "Point", "coordinates": [ -71.0512911, 42.3521821 ] } },
{ "type": "Feature", "properties": { "Name": "Harvard Square", "State": "Massachusetts", "Type": "TA" }, "geometry": { "type": "Point", "coordinates": [ -71.1202181, 42.3732168 ] } },
{ "type": "Feature", "properties": { "Name": "New England Aquarium", "State": "Massachusetts", "Type": "TA" }, "geometry": { "type": "Point", "coordinates": [ -71.0491475, 42.3592478 ] } },
{ "type": "Feature", "properties": { "Name": "Wright's Tower", "State": "Massachusetts", "Type": "TA" }, "geometry": { "type": "Point", "coordinates": [ -71.1048956, 42.4327042 ] } },
{ "type": "Feature", "properties": { "Name": "Public Garden", "State": "Massachusetts", "Type": "TA" }, "geometry": { "type": "Point", "coordinates": [ -71.070785, 42.354620399999988 ] } },
{ "type": "Feature", "properties": { "Name": "The Paul Revere House", "State": "Massachusetts", "Type": "TA" }, "geometry": { "type": "Point", "coordinates": [ -71.0536561, 42.363725 ] } },
{ "type": "Feature", "properties": { "Name": "Museum of Science", "State": "Massachusetts", "Type": "TA" }, "geometry": { "type": "Point", "coordinates": [ -71.0709771, 42.367714 ] } },
{ "type": "Feature", "properties": { "Name": "Boston Common", "State": "Massachusetts", "Type": "TA" }, "geometry": { "type": "Point", "coordinates": [ -71.0657256, 42.3550897 ] } },
{ "type": "Feature", "properties": { "Name": "Old State House", "State": "Massachusetts", "Type": "TA" }, "geometry": { "type": "Point", "coordinates": [ -71.057454, 42.3587352 ] } },
{ "type": "Feature", "properties": { "Name": "Charles River Esplanade", "State": "Massachusetts", "Type": "TA" }, "geometry": { "type": "Point", "coordinates": [ -71.0788876, 42.3556187 ] } },
{ "type": "Feature", "properties": { "Name": "Boston Massacre Site", "State": "Massachusetts", "Type": "TA" }, "geometry": { "type": "Point", "coordinates": [ -71.0572023, 42.3587627 ] } },
{ "type": "Feature", "properties": { "Name": "Witch Dungeon Museum", "State": "Massachusetts", "Type": "TA" }, "geometry": { "type": "Point", "coordinates": [ -70.8972308, 42.5225 ] } },
{ "type": "Feature", "properties": { "Name": "The Butterfly Place", "State": "Massachusetts", "Type": "TA" }, "geometry": { "type": "Point", "coordinates": [ -71.439655500000015, 42.6420379 ] } },
{ "type": "Feature", "properties": { "Name": "Gore Place", "State": "Massachusetts", "Type": "TA" }, "geometry": { "type": "Point", "coordinates": [ -71.2118873, 42.3735268 ] } },
{ "type": "Feature", "properties": { "Name": "deCordova Sculpture Park and Museum", "State": "Massachusetts", "Type": "TA" }, "geometry": { "type": "Point", "coordinates": [ -71.3108056, 42.4303119 ] } },
{ "type": "Feature", "properties": { "Name": "Pictured Rocks National Lakeshore", "State": "Michigan", "Type": "TA" }, "geometry": { "type": "Point", "coordinates": [ -86.3186376, 46.5687756 ] } },
{ "type": "Feature", "properties": { "Name": "Kitch-iti-kipi", "State": "Michigan", "Type": "TA" }, "geometry": { "type": "Point", "coordinates": [ -86.3819556, 46.00415 ] } },
{ "type": "Feature", "properties": { "Name": "Isle Royale National Park", "State": "Michigan", "Type": "TA" }, "geometry": { "type": "Point", "coordinates": [ -88.9092899, 47.9958654 ] } },
{ "type": "Feature", "properties": { "Name": "Tunnel of Trees", "State": "Michigan", "Type": "TA" }, "geometry": { "type": "Point", "coordinates": [ -85.1006914, 45.508424 ] } },
{ "type": "Feature", "properties": { "Name": "South Manitou Island Lighthouse", "State": "Michigan", "Type": "TA" }, "geometry": { "type": "Point", "coordinates": [ -86.0938546, 45.0075633 ] } },
{ "type": "Feature", "properties": { "Name": "Old Mackinac Point Lighthouse", "State": "Michigan", "Type": "TA" }, "geometry": { "type": "Point", "coordinates": [ -84.7294444, 45.7875 ] } },
{ "type": "Feature", "properties": { "Name": "Inspiration Point", "State": "Michigan", "Type": "TA" }, "geometry": { "type": "Point", "coordinates": [ -86.2324103, 44.51977 ] } },
{ "type": "Feature", "properties": { "Name": "Arch Rock", "State": "Michigan", "Type": "TA" }, "geometry": { "type": "Point", "coordinates": [ -84.6066466, 45.8577865 ] } },
{ "type": "Feature", "properties": { "Name": "Tahquamenon Falls State Park", "State": "Michigan", "Type": "TA" }, "geometry": { "type": "Point", "coordinates": [ -85.2019773, 46.6053783 ] } },
{ "type": "Feature", "properties": { "Name": "Peninsula Point Lighthouse", "State": "Michigan", "Type": "TA" }, "geometry": { "type": "Point", "coordinates": [ -86.9669779, 45.66807 ] } },
{ "type": "Feature", "properties": { "Name": "Fish Ladder Park", "State": "Michigan", "Type": "TA" }, "geometry": { "type": "Point", "coordinates": [ -85.6766108, 42.974513599999987 ] } },
{ "type": "Feature", "properties": { "Name": "Fisherman's Island State Park", "State": "Michigan", "Type": "TA" }, "geometry": { "type": "Point", "coordinates": [ -85.3101978, 45.308006 ] } },
{ "type": "Feature", "properties": { "Name": "Robert H. Manning Memorial Lighthouse", "State": "Michigan", "Type": "TA" }, "geometry": { "type": "Point", "coordinates": [ -86.0672519, 44.8142953 ] } },
{ "type": "Feature", "properties": { "Name": "Sleeping Bear Point Coast Guard Station Maritime Museum", "State": "Michigan", "Type": "TA" }, "geometry": { "type": "Point", "coordinates": [ -86.0338791, 44.9079589 ] } },
{ "type": "Feature", "properties": { "Name": "Pere Marquette Park", "State": "Michigan", "Type": "TA" }, "geometry": { "type": "Point", "coordinates": [ -86.3363495, 43.2238321 ] } },
{ "type": "Feature", "properties": { "Name": "Fishtown", "State": "Michigan", "Type": "TA" }, "geometry": { "type": "Point", "coordinates": [ -85.7615894, 45.0234453 ] } },
{ "type": "Feature", "properties": { "Name": "Stearns Park", "State": "Michigan", "Type": "TA" }, "geometry": { "type": "Point", "coordinates": [ -86.4597583, 43.960098 ] } },
{ "type": "Feature", "properties": { "Name": "Muskegon State Park", "State": "Michigan", "Type": "TA" }, "geometry": { "type": "Point", "coordinates": [ -86.3415005, 43.2475206 ] } },
{ "type": "Feature", "properties": { "Name": "Duck Lake State Park", "State": "Michigan", "Type": "TA" }, "geometry": { "type": "Point", "coordinates": [ -86.4046048, 43.3427276 ] } },
{ "type": "Feature", "properties": { "Name": "P. J. Hoffmaster State Park", "State": "Michigan", "Type": "TA" }, "geometry": { "type": "Point", "coordinates": [ -86.2654037, 43.132895100000013 ] } },
{ "type": "Feature", "properties": { "Name": "Como Park Zoo & Conservatory", "State": "Minnesota", "Type": "TA" }, "geometry": { "type": "Point", "coordinates": [ -93.1525156, 44.9809602 ] } },
{ "type": "Feature", "properties": { "Name": "Prospect Park Water Tower", "State": "Minnesota", "Type": "TA" }, "geometry": { "type": "Point", "coordinates": [ -93.212699199999989, 44.968633 ] } },
{ "type": "Feature", "properties": { "Name": "Gooseberry Falls State Park", "State": "Minnesota", "Type": "TA" }, "geometry": { "type": "Point", "coordinates": [ -91.4653688, 47.1456215 ] } },
{ "type": "Feature", "properties": { "Name": "Amazing Mirror Maze", "State": "Minnesota", "Type": "TA" }, "geometry": { "type": "Point", "coordinates": [ -93.2410038, 44.8558001 ] } },
{ "type": "Feature", "properties": { "Name": "Como Park", "State": "Minnesota", "Type": "TA" }, "geometry": { "type": "Point", "coordinates": [ -93.1544064, 44.979549 ] } },
{ "type": "Feature", "properties": { "Name": "Minneapolis Institute of Art", "State": "Minnesota", "Type": "TA" }, "geometry": { "type": "Point", "coordinates": [ -93.273218, 44.958500099999988 ] } },
{ "type": "Feature", "properties": { "Name": "Mystery Cave State Park", "State": "Minnesota", "Type": "TA" }, "geometry": { "type": "Point", "coordinates": [ -92.3147677, 43.6165718 ] } },
{ "type": "Feature", "properties": { "Name": "Munsinger Gardens", "State": "Minnesota", "Type": "TA" }, "geometry": { "type": "Point", "coordinates": [ -94.1445174, 45.5514024 ] } },
{ "type": "Feature", "properties": { "Name": "Jolly Green Giant", "State": "Minnesota", "Type": "TA" }, "geometry": { "type": "Point", "coordinates": [ -94.0957037, 43.650638099999988 ] } },
{ "type": "Feature", "properties": { "Name": "Paul Bunyan Land", "State": "Minnesota", "Type": "TA" }, "geometry": { "type": "Point", "coordinates": [ -94.0292184, 46.351292099999988 ] } },
{ "type": "Feature", "properties": { "Name": "Voyageurs National Park", "State": "Minnesota", "Type": "TA" }, "geometry": { "type": "Point", "coordinates": [ -92.8458393, 48.4711276 ] } },
{ "type": "Feature", "properties": { "Name": "Rocky Taconite", "State": "Minnesota", "Type": "TA" }, "geometry": { "type": "Point", "coordinates": [ -91.2606916, 47.295612899999988 ] } },
{ "type": "Feature", "properties": { "Name": "Otto the Otter", "State": "Minnesota", "Type": "TA" }, "geometry": { "type": "Point", "coordinates": [ -96.0613565, 46.2769531 ] } },
{ "type": "Feature", "properties": { "Name": "The World's largest Raspberry", "State": "Minnesota", "Type": "TA" }, "geometry": { "type": "Point", "coordinates": [ -93.4099234, 44.9252693 ] } },
{ "type": "Feature", "properties": { "Name": "Leonidas Overlook", "State": "Minnesota", "Type": "TA" }, "geometry": { "type": "Point", "coordinates": [ -92.5625477, 47.464234 ] } },
{ "type": "Feature", "properties": { "Name": "Fountain Lake Mermaid", "State": "Minnesota", "Type": "TA" }, "geometry": { "type": "Point", "coordinates": [ -93.3607033, 43.6527474 ] } },
{ "type": "Feature", "properties": { "Name": "World's Largest Tiger Muskie", "State": "Minnesota", "Type": "TA" }, "geometry": { "type": "Point", "coordinates": [ -94.842088, 46.964435 ] } },
{ "type": "Feature", "properties": { "Name": "Glensheen Mansion", "State": "Minnesota", "Type": "TA" }, "geometry": { "type": "Point", "coordinates": [ -92.051791, 46.815161 ] } },
{ "type": "Feature", "properties": { "Name": "Mall of America®", "State": "Minnesota", "Type": "TA" }, "geometry": { "type": "Point", "coordinates": [ -93.2422148, 44.8548651 ] } },
{ "type": "Feature", "properties": { "Name": "Ellsworth Rock Gardens", "State": "Minnesota", "Type": "TA" }, "geometry": { "type": "Point", "coordinates": [ -92.979147, 48.49724 ] } },
{ "type": "Feature", "properties": { "Name": "Mississippi Petrified Forest", "State": "Mississippi", "Type": "TA" }, "geometry": { "type": "Point", "coordinates": [ -90.322961, 32.514217 ] } },
{ "type": "Feature", "properties": { "Name": "Biloxi Lighthouse", "State": "Mississippi", "Type": "TA" }, "geometry": { "type": "Point", "coordinates": [ -88.9012236, 30.3944104 ] } },
{ "type": "Feature", "properties": { "Name": "Old Capitol Museum", "State": "Mississippi", "Type": "TA" }, "geometry": { "type": "Point", "coordinates": [ -90.1798705, 32.2991558 ] } },
{ "type": "Feature", "properties": { "Name": "Mississippi Museum of Natural Science", "State": "Mississippi", "Type": "TA" }, "geometry": { "type": "Point", "coordinates": [ -90.1572274, 32.3249191 ] } },
{ "type": "Feature", "properties": { "Name": "Maritime & Seafood Industry Museum", "State": "Mississippi", "Type": "TA" }, "geometry": { "type": "Point", "coordinates": [ -88.8590318, 30.3935324 ] } },
{ "type": "Feature", "properties": { "Name": "Emerald Mound", "State": "Mississippi", "Type": "TA" }, "geometry": { "type": "Point", "coordinates": [ -91.247055500000016, 31.6360092 ] } },
{ "type": "Feature", "properties": { "Name": "Elvis Presley Birthplace", "State": "Mississippi", "Type": "TA" }, "geometry": { "type": "Point", "coordinates": [ -88.679964, 34.2599873 ] } },
{ "type": "Feature", "properties": { "Name": "Sunken Trace", "State": "Mississippi", "Type": "TA" }, "geometry": { "type": "Point", "coordinates": [ -90.954454, 31.9706412 ] } },
{ "type": "Feature", "properties": { "Name": "Longwood", "State": "Mississippi", "Type": "TA" }, "geometry": { "type": "Point", "coordinates": [ -91.4051986, 31.5366902 ] } },
{ "type": "Feature", "properties": { "Name": "Windsor Ruins", "State": "Mississippi", "Type": "TA" }, "geometry": { "type": "Point", "coordinates": [ -91.1295158, 31.9405684 ] } },
{ "type": "Feature", "properties": { "Name": "McRaven Tour Home", "State": "Mississippi", "Type": "TA" }, "geometry": { "type": "Point", "coordinates": [ -90.8720556, 32.34605 ] } },
{ "type": "Feature", "properties": { "Name": "The Jackson Zoo", "State": "Mississippi", "Type": "TA" }, "geometry": { "type": "Point", "coordinates": [ -90.2217503, 32.3189223 ] } },
{ "type": "Feature", "properties": { "Name": "USS Cairo Museum", "State": "Mississippi", "Type": "TA" }, "geometry": { "type": "Point", "coordinates": [ -90.8666699, 32.3758781 ] } },
{ "type": "Feature", "properties": { "Name": "Mount Locust", "State": "Mississippi", "Type": "TA" }, "geometry": { "type": "Point", "coordinates": [ -91.1905028, 31.6863961 ] } },
{ "type": "Feature", "properties": { "Name": "Vicksburg National Military Park", "State": "Mississippi", "Type": "TA" }, "geometry": { "type": "Point", "coordinates": [ -90.8452588, 32.3548532 ] } },
{ "type": "Feature", "properties": { "Name": "Mississippi Children's Museum", "State": "Mississippi", "Type": "TA" }, "geometry": { "type": "Point", "coordinates": [ -90.1571926, 32.3287003 ] } },
{ "type": "Feature", "properties": { "Name": "Mississippi Gulf Coast", "State": "Mississippi", "Type": "TA" }, "geometry": { "type": "Point", "coordinates": [ -88.9394463, 30.3923953 ] } },
{ "type": "Feature", "properties": { "Name": "Crystal Lake", "State": "Mississippi", "Type": "TA" }, "geometry": { "type": "Point", "coordinates": [ -90.1545187, 32.2886282 ] } },
{ "type": "Feature", "properties": { "Name": "Coastal Mardi Gras Museum", "State": "Mississippi", "Type": "TA" }, "geometry": { "type": "Point", "coordinates": [ -88.8887159, 30.3968023 ] } },
{ "type": "Feature", "properties": { "Name": "Museum of Mississippi History", "State": "Mississippi", "Type": "TA" }, "geometry": { "type": "Point", "coordinates": [ -90.1776085, 32.3015309 ] } },
{ "type": "Feature", "properties": { "Name": "Silver Dollar City", "State": "Missouri", "Type": "TA" }, "geometry": { "type": "Point", "coordinates": [ -93.338143699999989, 36.6664162 ] } },
{ "type": "Feature", "properties": { "Name": "Elephant Rocks State Park", "State": "Missouri", "Type": "TA" }, "geometry": { "type": "Point", "coordinates": [ -90.6879919, 37.654487499999988 ] } },
{ "type": "Feature", "properties": { "Name": "Forest Park", "State": "Missouri", "Type": "TA" }, "geometry": { "type": "Point", "coordinates": [ -90.2831478, 38.6444901 ] } },
{ "type": "Feature", "properties": { "Name": "The Gateway Arch", "State": "Missouri", "Type": "TA" }, "geometry": { "type": "Point", "coordinates": [ -90.1867504, 38.6251269 ] } },
{ "type": "Feature", "properties": { "Name": "Fantastic Caverns", "State": "Missouri", "Type": "TA" }, "geometry": { "type": "Point", "coordinates": [ -93.359622, 37.288001 ] } },
{ "type": "Feature", "properties": { "Name": "Johnson's Shut-Ins State Park", "State": "Missouri", "Type": "TA" }, "geometry": { "type": "Point", "coordinates": [ -90.8483783, 37.5490014 ] } },
{ "type": "Feature", "properties": { "Name": "Museum of Westward Expansion", "State": "Missouri", "Type": "TA" }, "geometry": { "type": "Point", "coordinates": [ -90.1892685, 38.6256726 ] } },
{ "type": "Feature", "properties": { "Name": "Bonne Terre Mine \"The Mine at Bonne Terre\"", "State": "Missouri", "Type": "TA" }, "geometry": { "type": "Point", "coordinates": [ -90.551518, 37.922527 ] } },
{ "type": "Feature", "properties": { "Name": "Fisher Cave", "State": "Missouri", "Type": "TA" }, "geometry": { "type": "Point", "coordinates": [ -91.0842079, 38.227396 ] } },
{ "type": "Feature", "properties": { "Name": "Ha Ha Tonka State Park", "State": "Missouri", "Type": "TA" }, "geometry": { "type": "Point", "coordinates": [ -92.7604189, 37.9669648 ] } },
{ "type": "Feature", "properties": { "Name": "Uranus Missouri Towne Center", "State": "Missouri", "Type": "TA" }, "geometry": { "type": "Point", "coordinates": [ -92.105110599999989, 37.8291694 ] } },
{ "type": "Feature", "properties": { "Name": "Worlds of Fun", "State": "Missouri", "Type": "TA" }, "geometry": { "type": "Point", "coordinates": [ -94.486248, 39.1765826 ] } },
{ "type": "Feature", "properties": { "Name": "Welch Spring Hospital Ruins", "State": "Missouri", "Type": "TA" }, "geometry": { "type": "Point", "coordinates": [ -91.574362, 37.3938897 ] } },
{ "type": "Feature", "properties": { "Name": "World's Largest Fork By Mass", "State": "Missouri", "Type": "TA" }, "geometry": { "type": "Point", "coordinates": [ -93.3233026, 37.1453707 ] } },
{ "type": "Feature", "properties": { "Name": "Jacob's Cave", "State": "Missouri", "Type": "TA" }, "geometry": { "type": "Point", "coordinates": [ -92.8326674, 38.3513472 ] } },
{ "type": "Feature", "properties": { "Name": "Rocky Falls Shut-ins", "State": "Missouri", "Type": "TA" }, "geometry": { "type": "Point", "coordinates": [ -91.2101815, 37.0948966 ] } },
{ "type": "Feature", "properties": { "Name": "Wilson's Creek National Battlefield", "State": "Missouri", "Type": "TA" }, "geometry": { "type": "Point", "coordinates": [ -93.4198323, 37.1159439 ] } },
{ "type": "Feature", "properties": { "Name": "Jefferson Landing State Historic Site", "State": "Missouri", "Type": "TA" }, "geometry": { "type": "Point", "coordinates": [ -92.1702764, 38.5789366 ] } },
{ "type": "Feature", "properties": { "Name": "Route 66 Museum", "State": "Missouri", "Type": "TA" }, "geometry": { "type": "Point", "coordinates": [ -92.655765699999989, 37.6724337 ] } },
{ "type": "Feature", "properties": { "Name": "Mark Twain Memorial Lighthouse", "State": "Missouri", "Type": "TA" }, "geometry": { "type": "Point", "coordinates": [ -91.359008300000013, 39.7144188 ] } },
{ "type": "Feature", "properties": { "Name": "Lewis & Clark Caverns State Park", "State": "Montana", "Type": "TA" }, "geometry": { "type": "Point", "coordinates": [ -111.8627751, 45.834159799999988 ] } },
{ "type": "Feature", "properties": { "Name": "Pictograph Cave State Park", "State": "Montana", "Type": "TA" }, "geometry": { "type": "Point", "coordinates": [ -108.43111, 45.737818 ] } },
{ "type": "Feature", "properties": { "Name": "Glacier National Park", "State": "Montana", "Type": "TA" }, "geometry": { "type": "Point", "coordinates": [ -113.7870225, 48.7596128 ] } },
{ "type": "Feature", "properties": { "Name": "Grizzly & Wolf Discovery Center", "State": "Montana", "Type": "TA" }, "geometry": { "type": "Point", "coordinates": [ -111.0986333, 44.6561185 ] } },
{ "type": "Feature", "properties": { "Name": "Museum of the Rockies", "State": "Montana", "Type": "TA" }, "geometry": { "type": "Point", "coordinates": [ -111.0451215, 45.658623899999988 ] } },
{ "type": "Feature", "properties": { "Name": "Little Bighorn Battlefield National Monument", "State": "Montana", "Type": "TA" }, "geometry": { "type": "Point", "coordinates": [ -107.4273966, 45.5703673 ] } },
{ "type": "Feature", "properties": { "Name": "Western Heritage Center", "State": "Montana", "Type": "TA" }, "geometry": { "type": "Point", "coordinates": [ -108.5057932, 45.780569 ] } },
{ "type": "Feature", "properties": { "Name": "World Museum of Mining", "State": "Montana", "Type": "TA" }, "geometry": { "type": "Point", "coordinates": [ -112.5648062, 46.0093633 ] } },
{ "type": "Feature", "properties": { "Name": "Visit Helena Montana", "State": "Montana", "Type": "TA" }, "geometry": { "type": "Point", "coordinates": [ -112.0433777, 46.5848874 ] } },
{ "type": "Feature", "properties": { "Name": "Moss Mansion Museum", "State": "Montana", "Type": "TA" }, "geometry": { "type": "Point", "coordinates": [ -108.5160238, 45.779662599999988 ] } },
{ "type": "Feature", "properties": { "Name": "Tower Rock State Park", "State": "Montana", "Type": "TA" }, "geometry": { "type": "Point", "coordinates": [ -111.8101938, 47.188617 ] } },
{ "type": "Feature", "properties": { "Name": "Grant-Kohrs Ranch National Historic Site", "State": "Montana", "Type": "TA" }, "geometry": { "type": "Point", "coordinates": [ -112.736682, 46.406069 ] } },
{ "type": "Feature", "properties": { "Name": "Mammoth Hot Springs", "State": "Montana", "Type": "TA" }, "geometry": { "type": "Point", "coordinates": [ -110.7044382, 44.9679394 ] } },
{ "type": "Feature", "properties": { "Name": "Gates of the Mountains", "State": "Montana", "Type": "TA" }, "geometry": { "type": "Point", "coordinates": [ -111.9526308, 46.8321182 ] } },
{ "type": "Feature", "properties": { "Name": "Natural Bridge Falls Picnic Area", "State": "Montana", "Type": "TA" }, "geometry": { "type": "Point", "coordinates": [ -110.20614, 45.54962 ] } },
{ "type": "Feature", "properties": { "Name": "The Lewis and Clark Interpretive Center", "State": "Montana", "Type": "TA" }, "geometry": { "type": "Point", "coordinates": [ -111.2354907, 47.5293869 ] } },
{ "type": "Feature", "properties": { "Name": "Bighorn Canyon National Recreation Area", "State": "Montana", "Type": "TA" }, "geometry": { "type": "Point", "coordinates": [ -108.2466665, 45.0534639 ] } },
{ "type": "Feature", "properties": { "Name": "Conrad Mansion Museum", "State": "Montana", "Type": "TA" }, "geometry": { "type": "Point", "coordinates": [ -114.3031193, 48.1969834 ] } },
{ "type": "Feature", "properties": { "Name": "C. M. Russell Museum", "State": "Montana", "Type": "TA" }, "geometry": { "type": "Point", "coordinates": [ -111.2862464, 47.5101885 ] } },
{ "type": "Feature", "properties": { "Name": "First Peoples Buffalo Jump State Park", "State": "Montana", "Type": "TA" }, "geometry": { "type": "Point", "coordinates": [ -111.5247387, 47.4796208 ] } },
{ "type": "Feature", "properties": { "Name": "Omaha's Henry Doorly Zoo and Aquarium", "State": "Nebraska", "Type": "TA" }, "geometry": { "type": "Point", "coordinates": [ -95.9271093, 41.2258648 ] } },
{ "type": "Feature", "properties": { "Name": "Carhenge", "State": "Nebraska", "Type": "TA" }, "geometry": { "type": "Point", "coordinates": [ -102.857987, 42.142293 ] } },
{ "type": "Feature", "properties": { "Name": "Indian Cave State Park", "State": "Nebraska", "Type": "TA" }, "geometry": { "type": "Point", "coordinates": [ -95.579810099999989, 40.2647961 ] } },
{ "type": "Feature", "properties": { "Name": "Golden Spike Tower", "State": "Nebraska", "Type": "TA" }, "geometry": { "type": "Point", "coordinates": [ -100.829387, 41.144225 ] } },
{ "type": "Feature", "properties": { "Name": "Joslyn Castle & Gardens", "State": "Nebraska", "Type": "TA" }, "geometry": { "type": "Point", "coordinates": [ -95.9718884, 41.2616075 ] } },
{ "type": "Feature", "properties": { "Name": "Great Platte River Road Archway Monument", "State": "Nebraska", "Type": "TA" }, "geometry": { "type": "Point", "coordinates": [ -99.038551399999989, 40.6703512 ] } },
{ "type": "Feature", "properties": { "Name": "Desert Dome", "State": "Nebraska", "Type": "TA" }, "geometry": { "type": "Point", "coordinates": [ -95.9277329, 41.2256687 ] } },
{ "type": "Feature", "properties": { "Name": "Chimney Rock Museum", "State": "Nebraska", "Type": "TA" }, "geometry": { "type": "Point", "coordinates": [ -103.3325012, 41.7027335 ] } },
{ "type": "Feature", "properties": { "Name": "Scotts Bluff National Monument", "State": "Nebraska", "Type": "TA" }, "geometry": { "type": "Point", "coordinates": [ -103.7072063, 41.8343571 ] } },
{ "type": "Feature", "properties": { "Name": "Buffalo Bill Ranch State Historical Park Museum", "State": "Nebraska", "Type": "TA" }, "geometry": { "type": "Point", "coordinates": [ -100.7962165, 41.1631459 ] } },
{ "type": "Feature", "properties": { "Name": "Arbor Lodge State Historical Park", "State": "Nebraska", "Type": "TA" }, "geometry": { "type": "Point", "coordinates": [ -95.8779912, 40.6806544 ] } },
{ "type": "Feature", "properties": { "Name": "The Durham Museum", "State": "Nebraska", "Type": "TA" }, "geometry": { "type": "Point", "coordinates": [ -95.9289649, 41.251469 ] } },
{ "type": "Feature", "properties": { "Name": "Eugene T. Mahoney State Park", "State": "Nebraska", "Type": "TA" }, "geometry": { "type": "Point", "coordinates": [ -96.3139126, 41.0252917 ] } },
{ "type": "Feature", "properties": { "Name": "Fred's Flying Circus", "State": "Nebraska", "Type": "TA" }, "geometry": { "type": "Point", "coordinates": [ -98.3371823, 40.9302678 ] } },
{ "type": "Feature", "properties": { "Name": "Fort Hartsuff State Historical Park", "State": "Nebraska", "Type": "TA" }, "geometry": { "type": "Point", "coordinates": [ -99.0238618, 41.7236183 ] } },
{ "type": "Feature", "properties": { "Name": "Strategic Air Command & Aerospace Museum", "State": "Nebraska", "Type": "TA" }, "geometry": { "type": "Point", "coordinates": [ -96.3203526, 41.0180478 ] } },
{ "type": "Feature", "properties": { "Name": "Mansion on the Hill", "State": "Nebraska", "Type": "TA" }, "geometry": { "type": "Point", "coordinates": [ -101.7211193, 41.1330371 ] } },
{ "type": "Feature", "properties": { "Name": "Pony Express Station Museum, Gothenburg Nebraska", "State": "Nebraska", "Type": "TA" }, "geometry": { "type": "Point", "coordinates": [ -100.1590525, 40.9328761 ] } },
{ "type": "Feature", "properties": { "Name": "World's Largest Time Capsule", "State": "Nebraska", "Type": "TA" }, "geometry": { "type": "Point", "coordinates": [ -97.096152600000011, 40.9163132 ] } },
{ "type": "Feature", "properties": { "Name": "Pioneer Village", "State": "Nebraska", "Type": "TA" }, "geometry": { "type": "Point", "coordinates": [ -98.9511497, 40.504139 ] } },
{ "type": "Feature", "properties": { "Name": "Red Rock Canyon National Conservation Area", "State": "Nevada", "Type": "TA" }, "geometry": { "type": "Point", "coordinates": [ -115.4382967, 36.1944273 ] } },
{ "type": "Feature", "properties": { "Name": "Seven Magic Mountains", "State": "Nevada", "Type": "TA" }, "geometry": { "type": "Point", "coordinates": [ -115.270915, 35.8384095 ] } },
{ "type": "Feature", "properties": { "Name": "AREA15", "State": "Nevada", "Type": "TA" }, "geometry": { "type": "Point", "coordinates": [ -115.1815485, 36.1317582 ] } },
{ "type": "Feature", "properties": { "Name": "Gondola Rides at the Venetian", "State": "Nevada", "Type": "TA" }, "geometry": { "type": "Point", "coordinates": [ -115.1688889, 36.1233333 ] } },
{ "type": "Feature", "properties": { "Name": "Magical Forest and HallOVeen at Opportunity Village", "State": "Nevada", "Type": "TA" }, "geometry": { "type": "Point", "coordinates": [ -115.2325843, 36.1527729 ] } },
{ "type": "Feature", "properties": { "Name": "Lehman Caves Visitor Center", "State": "Nevada", "Type": "TA" }, "geometry": { "type": "Point", "coordinates": [ -114.2197939, 39.0055838 ] } },
{ "type": "Feature", "properties": { "Name": "Nelson Ghost Town", "State": "Nevada", "Type": "TA" }, "geometry": { "type": "Point", "coordinates": [ -114.8029676, 35.7098425 ] } },
{ "type": "Feature", "properties": { "Name": "Valley of Fire State Park", "State": "Nevada", "Type": "TA" }, "geometry": { "type": "Point", "coordinates": [ -114.5383925, 36.4756593 ] } },
{ "type": "Feature", "properties": { "Name": "Gold Butte National Monument", "State": "Nevada", "Type": "TA" }, "geometry": { "type": "Point", "coordinates": [ -114.1651794, 36.3778334 ] } },
{ "type": "Feature", "properties": { "Name": "Tule Springs Fossil Beds National Monument", "State": "Nevada", "Type": "TA" }, "geometry": { "type": "Point", "coordinates": [ -115.2790438, 36.3359873 ] } },
{ "type": "Feature", "properties": { "Name": "The Black Mailbox", "State": "Nevada", "Type": "TA" }, "geometry": { "type": "Point", "coordinates": [ -115.4826074, 37.4570745 ] } },
{ "type": "Feature", "properties": { "Name": "Lake Mead National Recreation Area", "State": "Nevada", "Type": "TA" }, "geometry": { "type": "Point", "coordinates": [ -114.4559303, 36.1550863 ] } },
{ "type": "Feature", "properties": { "Name": "Fremont Street Experience", "State": "Nevada", "Type": "TA" }, "geometry": { "type": "Point", "coordinates": [ -115.1417415, 36.1695567 ] } },
{ "type": "Feature", "properties": { "Name": "Siegfried & Roy Monument", "State": "Nevada", "Type": "TA" }, "geometry": { "type": "Point", "coordinates": [ -115.1713923, 36.1229434 ] } },
{ "type": "Feature", "properties": { "Name": "Shark Reef Aquarium at Mandalay Bay", "State": "Nevada", "Type": "TA" }, "geometry": { "type": "Point", "coordinates": [ -115.1764706, 36.0887734 ] } },
{ "type": "Feature", "properties": { "Name": "Zak Bagans' The Haunted Museum", "State": "Nevada", "Type": "TA" }, "geometry": { "type": "Point", "coordinates": [ -115.1457017, 36.1583839 ] } },
{ "type": "Feature", "properties": { "Name": "Springs Preserve", "State": "Nevada", "Type": "TA" }, "geometry": { "type": "Point", "coordinates": [ -115.1906904, 36.1693609 ] } },
{ "type": "Feature", "properties": { "Name": "Vegas Vic - Famous Neon Cowboy Sign", "State": "Nevada", "Type": "TA" }, "geometry": { "type": "Point", "coordinates": [ -115.1453502, 36.1711237 ] } },
{ "type": "Feature", "properties": { "Name": "Sand Harbor", "State": "Nevada", "Type": "TA" }, "geometry": { "type": "Point", "coordinates": [ -119.9322541, 39.1984978 ] } },
{ "type": "Feature", "properties": { "Name": "Fountain of the Gods", "State": "Nevada", "Type": "TA" }, "geometry": { "type": "Point", "coordinates": [ -115.1761496, 36.1190765 ] } },
{ "type": "Feature", "properties": { "Name": "Story Land", "State": "New Hampshire", "Type": "TA" }, "geometry": { "type": "Point", "coordinates": [ -71.1833956, 44.1159426 ] } },
{ "type": "Feature", "properties": { "Name": "Flume Gorge", "State": "New Hampshire", "Type": "TA" }, "geometry": { "type": "Point", "coordinates": [ -71.6659212, 44.098110899999988 ] } },
{ "type": "Feature", "properties": { "Name": "Franconia Notch State Park", "State": "New Hampshire", "Type": "TA" }, "geometry": { "type": "Point", "coordinates": [ -71.6896299, 44.1430035 ] } },
{ "type": "Feature", "properties": { "Name": "Currier Museum of Art", "State": "New Hampshire", "Type": "TA" }, "geometry": { "type": "Point", "coordinates": [ -71.45561, 42.997729 ] } },
{ "type": "Feature", "properties": { "Name": "Diana's Baths", "State": "New Hampshire", "Type": "TA" }, "geometry": { "type": "Point", "coordinates": [ -71.1638268, 44.0746368 ] } },
{ "type": "Feature", "properties": { "Name": "Squam Lakes Natural Science Center", "State": "New Hampshire", "Type": "TA" }, "geometry": { "type": "Point", "coordinates": [ -71.5879621, 43.7343347 ] } },
{ "type": "Feature", "properties": { "Name": "Monson Center", "State": "New Hampshire", "Type": "TA" }, "geometry": { "type": "Point", "coordinates": [ -71.616957, 42.7850123 ] } },
{ "type": "Feature", "properties": { "Name": "Children's Museum of New Hampshire", "State": "New Hampshire", "Type": "TA" }, "geometry": { "type": "Point", "coordinates": [ -70.8730321, 43.1948505 ] } },
{ "type": "Feature", "properties": { "Name": "The Mount Washington Cog Railway", "State": "New Hampshire", "Type": "TA" }, "geometry": { "type": "Point", "coordinates": [ -71.350828, 44.270017 ] } },
{ "type": "Feature", "properties": { "Name": "Abenaki Tower", "State": "New Hampshire", "Type": "TA" }, "geometry": { "type": "Point", "coordinates": [ -71.292219, 43.6705327 ] } },
{ "type": "Feature", "properties": { "Name": "Conway Scenic Railroad", "State": "New Hampshire", "Type": "TA" }, "geometry": { "type": "Point", "coordinates": [ -71.1286872, 44.0519959 ] } },
{ "type": "Feature", "properties": { "Name": "White Mountain National Forest", "State": "New Hampshire", "Type": "TA" }, "geometry": { "type": "Point", "coordinates": [ -71.4111797, 44.1544134 ] } },
{ "type": "Feature", "properties": { "Name": "Great Island Common", "State": "New Hampshire", "Type": "TA" }, "geometry": { "type": "Point", "coordinates": [ -70.7134472, 43.0647122 ] } },
{ "type": "Feature", "properties": { "Name": "Mine Falls Park", "State": "New Hampshire", "Type": "TA" }, "geometry": { "type": "Point", "coordinates": [ -71.4907066, 42.7610898 ] } },
{ "type": "Feature", "properties": { "Name": "America's Stonehenge", "State": "New Hampshire", "Type": "TA" }, "geometry": { "type": "Point", "coordinates": [ -71.2072275, 42.8428187 ] } },
{ "type": "Feature", "properties": { "Name": "Winnipesaukee Pier", "State": "New Hampshire", "Type": "TA" }, "geometry": { "type": "Point", "coordinates": [ -71.4595365, 43.6084035 ] } },
{ "type": "Feature", "properties": { "Name": "Rye Harbor State Park", "State": "New Hampshire", "Type": "TA" }, "geometry": { "type": "Point", "coordinates": [ -70.7445502, 43.0017127 ] } },
{ "type": "Feature", "properties": { "Name": "Hilton Park", "State": "New Hampshire", "Type": "TA" }, "geometry": { "type": "Point", "coordinates": [ -70.8278251, 43.121069 ] } },
{ "type": "Feature", "properties": { "Name": "Endicott Rock State Historic Site", "State": "New Hampshire", "Type": "TA" }, "geometry": { "type": "Point", "coordinates": [ -71.4561737, 43.6049358 ] } },
{ "type": "Feature", "properties": { "Name": "Pulpit Rock Tower", "State": "New Hampshire", "Type": "TA" }, "geometry": { "type": "Point", "coordinates": [ -70.7204711, 43.0335376 ] } },
{ "type": "Feature", "properties": { "Name": "Atlantic City Boardwalk", "State": "New Jersey", "Type": "TA" }, "geometry": { "type": "Point", "coordinates": [ -74.4381586, 39.3539034 ] } },
{ "type": "Feature", "properties": { "Name": "Six Flags Great Adventure", "State": "New Jersey", "Type": "TA" }, "geometry": { "type": "Point", "coordinates": [ -74.4361629, 40.1360605 ] } },
{ "type": "Feature", "properties": { "Name": "Battleship New Jersey", "State": "New Jersey", "Type": "TA" }, "geometry": { "type": "Point", "coordinates": [ -75.1330734, 39.9394484 ] } },
{ "type": "Feature", "properties": { "Name": "Princeton Battlefield State Park", "State": "New Jersey", "Type": "TA" }, "geometry": { "type": "Point", "coordinates": [ -74.6758103, 40.3319305 ] } },
{ "type": "Feature", "properties": { "Name": "Liberty State Park", "State": "New Jersey", "Type": "TA" }, "geometry": { "type": "Point", "coordinates": [ -74.0369892, 40.707453699999988 ] } },
{ "type": "Feature", "properties": { "Name": "Liberty Science Center", "State": "New Jersey", "Type": "TA" }, "geometry": { "type": "Point", "coordinates": [ -74.0546336, 40.7082308 ] } },
{ "type": "Feature", "properties": { "Name": "Paterson Great Falls National Historical Park", "State": "New Jersey", "Type": "TA" }, "geometry": { "type": "Point", "coordinates": [ -74.1800403, 40.9149503 ] } },
{ "type": "Feature", "properties": { "Name": "Grounds For Sculpture", "State": "New Jersey", "Type": "TA" }, "geometry": { "type": "Point", "coordinates": [ -74.7188915, 40.2367777 ] } },
{ "type": "Feature", "properties": { "Name": "Barnegat Lighthouse State Park", "State": "New Jersey", "Type": "TA" }, "geometry": { "type": "Point", "coordinates": [ -74.1063824, 39.7632135 ] } },
{ "type": "Feature", "properties": { "Name": "Asbury Park Boardwalk", "State": "New Jersey", "Type": "TA" }, "geometry": { "type": "Point", "coordinates": [ -73.9984365, 40.225233900000013 ] } },
{ "type": "Feature", "properties": { "Name": "Flag Plaza", "State": "New Jersey", "Type": "TA" }, "geometry": { "type": "Point", "coordinates": [ -74.0564448, 40.6927135 ] } },
{ "type": "Feature", "properties": { "Name": "Adventure Aquarium", "State": "New Jersey", "Type": "TA" }, "geometry": { "type": "Point", "coordinates": [ -75.1311712, 39.9460868 ] } },
{ "type": "Feature", "properties": { "Name": "Tuckerton Seaport Museum", "State": "New Jersey", "Type": "TA" }, "geometry": { "type": "Point", "coordinates": [ -74.3427365, 39.6019892 ] } },
{ "type": "Feature", "properties": { "Name": "Overlook Park", "State": "New Jersey", "Type": "TA" }, "geometry": { "type": "Point", "coordinates": [ -74.1806017, 40.9149849 ] } },
{ "type": "Feature", "properties": { "Name": "Millbrook Village Historic Site", "State": "New Jersey", "Type": "TA" }, "geometry": { "type": "Point", "coordinates": [ -74.9630842, 41.0735319 ] } },
{ "type": "Feature", "properties": { "Name": "J Owen Grundy Park", "State": "New Jersey", "Type": "TA" }, "geometry": { "type": "Point", "coordinates": [ -74.0318602, 40.716215299999988 ] } },
{ "type": "Feature", "properties": { "Name": "Monmouth Battlefield State Park", "State": "New Jersey", "Type": "TA" }, "geometry": { "type": "Point", "coordinates": [ -74.3203582, 40.2636828 ] } },
{ "type": "Feature", "properties": { "Name": "High Point State Park", "State": "New Jersey", "Type": "TA" }, "geometry": { "type": "Point", "coordinates": [ -74.6989549, 41.2934244 ] } },
{ "type": "Feature", "properties": { "Name": "Sterling Hill Mining Museum", "State": "New Jersey", "Type": "TA" }, "geometry": { "type": "Point", "coordinates": [ -74.6041832, 41.0835394 ] } },
{ "type": "Feature", "properties": { "Name": "Old Barracks Museum", "State": "New Jersey", "Type": "TA" }, "geometry": { "type": "Point", "coordinates": [ -74.7686952, 40.2199122 ] } },
{ "type": "Feature", "properties": { "Name": "Gila Cliff Dwellings National Monument", "State": "New Mexico", "Type": "TA" }, "geometry": { "type": "Point", "coordinates": [ -108.2706705, 33.2271524 ] } },
{ "type": "Feature", "properties": { "Name": "Santa Fe Plaza", "State": "New Mexico", "Type": "TA" }, "geometry": { "type": "Point", "coordinates": [ -105.9385121, 35.6874277 ] } },
{ "type": "Feature", "properties": { "Name": "Bandelier National Monument", "State": "New Mexico", "Type": "TA" }, "geometry": { "type": "Point", "coordinates": [ -106.2742086, 35.7821778 ] } },
{ "type": "Feature", "properties": { "Name": "Kasha-Katuwe Tent Rocks National Monument", "State": "New Mexico", "Type": "TA" }, "geometry": { "type": "Point", "coordinates": [ -106.3583357, 35.6142756 ] } },
{ "type": "Feature", "properties": { "Name": "Pecos National Historical Park", "State": "New Mexico", "Type": "TA" }, "geometry": { "type": "Point", "coordinates": [ -105.6780592, 35.5416823 ] } },
{ "type": "Feature", "properties": { "Name": "El Malpais National Monument Visitor Center", "State": "New Mexico", "Type": "TA" }, "geometry": { "type": "Point", "coordinates": [ -107.8287633, 35.1186292 ] } },
{ "type": "Feature", "properties": { "Name": "Puye Cliff Dwellings", "State": "New Mexico", "Type": "TA" }, "geometry": { "type": "Point", "coordinates": [ -106.2291531, 35.9727521 ] } },
{ "type": "Feature", "properties": { "Name": "El Malpais National Monument", "State": "New Mexico", "Type": "TA" }, "geometry": { "type": "Point", "coordinates": [ -107.9959595, 34.8915612 ] } },
{ "type": "Feature", "properties": { "Name": "Meow Wolf Santa Fe", "State": "New Mexico", "Type": "TA" }, "geometry": { "type": "Point", "coordinates": [ -105.9968339, 35.6545692 ] } },
{ "type": "Feature", "properties": { "Name": "White Sands National Park", "State": "New Mexico", "Type": "TA" }, "geometry": { "type": "Point", "coordinates": [ -106.3256816, 32.7872403 ] } },
{ "type": "Feature", "properties": { "Name": "White Rock Overlook", "State": "New Mexico", "Type": "TA" }, "geometry": { "type": "Point", "coordinates": [ -106.1795657, 35.8266776 ] } },
{ "type": "Feature", "properties": { "Name": "Turquoise Museum", "State": "New Mexico", "Type": "TA" }, "geometry": { "type": "Point", "coordinates": [ -106.6497666, 35.0807475 ] } },
{ "type": "Feature", "properties": { "Name": "Carlsbad Caverns National Park", "State": "New Mexico", "Type": "TA" }, "geometry": { "type": "Point", "coordinates": [ -104.5437529, 32.137045 ] } },
{ "type": "Feature", "properties": { "Name": "Smokey Bear Historical Park", "State": "New Mexico", "Type": "TA" }, "geometry": { "type": "Point", "coordinates": [ -105.5742896, 33.5457405 ] } },
{ "type": "Feature", "properties": { "Name": "#AbqTours - History & GHOST Tours of Old Town", "State": "New Mexico", "Type": "TA" }, "geometry": { "type": "Point", "coordinates": [ -106.670977, 35.096624299999988 ] } },
{ "type": "Feature", "properties": { "Name": "Coronado Historic Site", "State": "New Mexico", "Type": "TA" }, "geometry": { "type": "Point", "coordinates": [ -106.5568737, 35.3298846 ] } },
{ "type": "Feature", "properties": { "Name": "Bosque Del Apache National Wildlife Refuge Visitor Center", "State": "New Mexico", "Type": "TA" }, "geometry": { "type": "Point", "coordinates": [ -106.8910968, 33.8044952 ] } },
{ "type": "Feature", "properties": { "Name": "Río Grande del Norte National Monument", "State": "New Mexico", "Type": "TA" }, "geometry": { "type": "Point", "coordinates": [ -105.7318764, 36.4785623 ] } },
{ "type": "Feature", "properties": { "Name": "Rio Grande Nature Center State Park", "State": "New Mexico", "Type": "TA" }, "geometry": { "type": "Point", "coordinates": [ -106.6828452, 35.1304753 ] } },
{ "type": "Feature", "properties": { "Name": "Geronimo Springs Museum", "State": "New Mexico", "Type": "TA" }, "geometry": { "type": "Point", "coordinates": [ -107.2527172, 33.129986 ] } },
{ "type": "Feature", "properties": { "Name": "Top of The Rock", "State": "New York", "Type": "TA" }, "geometry": { "type": "Point", "coordinates": [ -73.9794087, 40.7593495 ] } },
{ "type": "Feature", "properties": { "Name": "One World Observatory", "State": "New York", "Type": "TA" }, "geometry": { "type": "Point", "coordinates": [ -74.013173, 40.7130062 ] } },
{ "type": "Feature", "properties": { "Name": "Rockefeller Center", "State": "New York", "Type": "TA" }, "geometry": { "type": "Point", "coordinates": [ -73.9786736, 40.7587402 ] } },
{ "type": "Feature", "properties": { "Name": "Statue of Liberty", "State": "New York", "Type": "TA" }, "geometry": { "type": "Point", "coordinates": [ -74.0445004, 40.6892494 ] } },
{ "type": "Feature", "properties": { "Name": "The High Line", "State": "New York", "Type": "TA" }, "geometry": { "type": "Point", "coordinates": [ -74.0047649, 40.7479925 ] } },
{ "type": "Feature", "properties": { "Name": "Central Park", "State": "New York", "Type": "TA" }, "geometry": { "type": "Point", "coordinates": [ -73.9655834, 40.7825547 ] } },
{ "type": "Feature", "properties": { "Name": "Times Square", "State": "New York", "Type": "TA" }, "geometry": { "type": "Point", "coordinates": [ -73.9855426, 40.7579747 ] } },
{ "type": "Feature", "properties": { "Name": "Tenement Museum", "State": "New York", "Type": "TA" }, "geometry": { "type": "Point", "coordinates": [ -73.9900876, 40.718818 ] } },
{ "type": "Feature", "properties": { "Name": "Flatiron Building", "State": "New York", "Type": "TA" }, "geometry": { "type": "Point", "coordinates": [ -73.9896986, 40.7410605 ] } },
{ "type": "Feature", "properties": { "Name": "Pier 46 at Hudson River Park", "State": "New York", "Type": "TA" }, "geometry": { "type": "Point", "coordinates": [ -74.011265, 40.7341889 ] } },
{ "type": "Feature", "properties": { "Name": "Statue City Cruises Battery Park/ Liberty Island", "State": "New York", "Type": "TA" }, "geometry": { "type": "Point", "coordinates": [ -74.0173388, 40.7033091 ] } },
{ "type": "Feature", "properties": { "Name": "Empire State Building", "State": "New York", "Type": "TA" }, "geometry": { "type": "Point", "coordinates": [ -73.9856644, 40.7484405 ] } },
{ "type": "Feature", "properties": { "Name": "Manhattan Bridge", "State": "New York", "Type": "TA" }, "geometry": { "type": "Point", "coordinates": [ -73.9907742, 40.7074959 ] } },
{ "type": "Feature", "properties": { "Name": "Governors Island National Monument", "State": "New York", "Type": "TA" }, "geometry": { "type": "Point", "coordinates": [ -74.0172006, 40.6902132 ] } },
{ "type": "Feature", "properties": { "Name": "New Museum", "State": "New York", "Type": "TA" }, "geometry": { "type": "Point", "coordinates": [ -73.9928905, 40.7223376 ] } },
{ "type": "Feature", "properties": { "Name": "The Battery", "State": "New York", "Type": "TA" }, "geometry": { "type": "Point", "coordinates": [ -74.0153603, 40.702931199999988 ] } },
{ "type": "Feature", "properties": { "Name": "Brooklyn Bridge", "State": "New York", "Type": "TA" }, "geometry": { "type": "Point", "coordinates": [ -73.9968643, 40.7060855 ] } },
{ "type": "Feature", "properties": { "Name": "South Street Seaport Museum", "State": "New York", "Type": "TA" }, "geometry": { "type": "Point", "coordinates": [ -74.0036463, 40.7064979 ] } },
{ "type": "Feature", "properties": { "Name": "Liberty Park", "State": "New York", "Type": "TA" }, "geometry": { "type": "Point", "coordinates": [ -74.0138512, 40.710440299999988 ] } },
{ "type": "Feature", "properties": { "Name": "Castle Clinton National Monument", "State": "New York", "Type": "TA" }, "geometry": { "type": "Point", "coordinates": [ -74.0168023, 40.7034401 ] } },
{ "type": "Feature", "properties": { "Name": "Chimney Rock at Chimney Rock State Park", "State": "North Carolina", "Type": "TA" }, "geometry": { "type": "Point", "coordinates": [ -82.2503158, 35.4328067 ] } },
{ "type": "Feature", "properties": { "Name": "North Carolina Museum of Natural Sciences", "State": "North Carolina", "Type": "TA" }, "geometry": { "type": "Point", "coordinates": [ -78.6392974, 35.7821824 ] } },
{ "type": "Feature", "properties": { "Name": "Biltmore", "State": "North Carolina", "Type": "TA" }, "geometry": { "type": "Point", "coordinates": [ -82.5523204, 35.5405665 ] } },
{ "type": "Feature", "properties": { "Name": "North Carolina Zoo", "State": "North Carolina", "Type": "TA" }, "geometry": { "type": "Point", "coordinates": [ -79.759106, 35.6273195 ] } },
{ "type": "Feature", "properties": { "Name": "Fort Macon State Park", "State": "North Carolina", "Type": "TA" }, "geometry": { "type": "Point", "coordinates": [ -76.6922292, 34.7000211 ] } },
{ "type": "Feature", "properties": { "Name": "Shangri-La Stone Village", "State": "North Carolina", "Type": "TA" }, "geometry": { "type": "Point", "coordinates": [ -79.214615, 36.2995869 ] } },
{ "type": "Feature", "properties": { "Name": "International Civil Rights Center & Museum", "State": "North Carolina", "Type": "TA" }, "geometry": { "type": "Point", "coordinates": [ -79.7904645, 36.0716425 ] } },
{ "type": "Feature", "properties": { "Name": "Pullen Park", "State": "North Carolina", "Type": "TA" }, "geometry": { "type": "Point", "coordinates": [ -78.6628708, 35.7792205 ] } },
{ "type": "Feature", "properties": { "Name": "Freedom Park", "State": "North Carolina", "Type": "TA" }, "geometry": { "type": "Point", "coordinates": [ -80.8434408, 35.1914488 ] } },
{ "type": "Feature", "properties": { "Name": "Raven Rock State Park", "State": "North Carolina", "Type": "TA" }, "geometry": { "type": "Point", "coordinates": [ -78.9135741, 35.4635101 ] } },
{ "type": "Feature", "properties": { "Name": "Hanging Rock State Park", "State": "North Carolina", "Type": "TA" }, "geometry": { "type": "Point", "coordinates": [ -80.253975, 36.411521 ] } },
{ "type": "Feature", "properties": { "Name": "Mordecai Historic Park", "State": "North Carolina", "Type": "TA" }, "geometry": { "type": "Point", "coordinates": [ -78.6331444, 35.792825 ] } },
{ "type": "Feature", "properties": { "Name": "Sarah P. Duke Gardens", "State": "North Carolina", "Type": "TA" }, "geometry": { "type": "Point", "coordinates": [ -78.93113240000001, 36.0020104 ] } },
{ "type": "Feature", "properties": { "Name": "Historic Yates Mill County Park", "State": "North Carolina", "Type": "TA" }, "geometry": { "type": "Point", "coordinates": [ -78.685693, 35.721626 ] } },
{ "type": "Feature", "properties": { "Name": "Cliffs of the Neuse State Park", "State": "North Carolina", "Type": "TA" }, "geometry": { "type": "Point", "coordinates": [ -77.890446, 35.235643 ] } },
{ "type": "Feature", "properties": { "Name": "Greensboro History Museum", "State": "North Carolina", "Type": "TA" }, "geometry": { "type": "Point", "coordinates": [ -79.788027, 36.075657 ] } },
{ "type": "Feature", "properties": { "Name": "Morehead Planetarium and Science Center", "State": "North Carolina", "Type": "TA" }, "geometry": { "type": "Point", "coordinates": [ -79.05051, 35.9139033 ] } },
{ "type": "Feature", "properties": { "Name": "Jockey's Ridge State Park", "State": "North Carolina", "Type": "TA" }, "geometry": { "type": "Point", "coordinates": [ -75.6326293, 35.9637835 ] } },
{ "type": "Feature", "properties": { "Name": "Ava Gardner Museum", "State": "North Carolina", "Type": "TA" }, "geometry": { "type": "Point", "coordinates": [ -78.345163, 35.5109812 ] } },
{ "type": "Feature", "properties": { "Name": "North Carolina Museum of Art", "State": "North Carolina", "Type": "TA" }, "geometry": { "type": "Point", "coordinates": [ -78.7025784, 35.8098857 ] } },
{ "type": "Feature", "properties": { "Name": "Fort Union Trading Post National Historic Site", "State": "North Dakota", "Type": "TA" }, "geometry": { "type": "Point", "coordinates": [ -104.0405613, 47.9992646 ] } },
{ "type": "Feature", "properties": { "Name": "Theodore Roosevelt National Park", "State": "North Dakota", "Type": "TA" }, "geometry": { "type": "Point", "coordinates": [ -103.5387091, 46.978965 ] } },
{ "type": "Feature", "properties": { "Name": "Badlands Overlook", "State": "North Dakota", "Type": "TA" }, "geometry": { "type": "Point", "coordinates": [ -103.4521211, 46.9220421 ] } },
{ "type": "Feature", "properties": { "Name": "Chateau de Mores State Historic Site", "State": "North Dakota", "Type": "TA" }, "geometry": { "type": "Point", "coordinates": [ -103.5348967, 46.9124894 ] } },
{ "type": "Feature", "properties": { "Name": "Fort Abraham Lincoln State Park", "State": "North Dakota", "Type": "TA" }, "geometry": { "type": "Point", "coordinates": [ -100.8478347, 46.7660582 ] } },
{ "type": "Feature", "properties": { "Name": "Fort Buford State Historic Site", "State": "North Dakota", "Type": "TA" }, "geometry": { "type": "Point", "coordinates": [ -104.0004129, 47.987658 ] } },
{ "type": "Feature", "properties": { "Name": "World's Largest Buffalo", "State": "North Dakota", "Type": "TA" }, "geometry": { "type": "Point", "coordinates": [ -98.6985054, 46.8893151 ] } },
{ "type": "Feature", "properties": { "Name": "Oxbow Overlook", "State": "North Dakota", "Type": "TA" }, "geometry": { "type": "Point", "coordinates": [ -103.4415885, 47.603045300000012 ] } },
{ "type": "Feature", "properties": { "Name": "Knife River Indian Villages National Historic Site", "State": "North Dakota", "Type": "TA" }, "geometry": { "type": "Point", "coordinates": [ -101.3858376, 47.3315297 ] } },
{ "type": "Feature", "properties": { "Name": "Dakota Zoo", "State": "North Dakota", "Type": "TA" }, "geometry": { "type": "Point", "coordinates": [ -100.8067539, 46.7994838 ] } },
{ "type": "Feature", "properties": { "Name": "National Buffalo Museum", "State": "North Dakota", "Type": "TA" }, "geometry": { "type": "Point", "coordinates": [ -98.7012025, 46.8884773 ] } },
{ "type": "Feature", "properties": { "Name": "Sandy - The World's Largest Sandhill Crane", "State": "North Dakota", "Type": "TA" }, "geometry": { "type": "Point", "coordinates": [ -99.9131573, 46.8616523 ] } },
{ "type": "Feature", "properties": { "Name": "Crow Flies High State Recreation Area", "State": "North Dakota", "Type": "TA" }, "geometry": { "type": "Point", "coordinates": [ -102.545508, 47.9824025 ] } },
{ "type": "Feature", "properties": { "Name": "Bonanzaville USA", "State": "North Dakota", "Type": "TA" }, "geometry": { "type": "Point", "coordinates": [ -96.9295538, 46.876388600000013 ] } },
{ "type": "Feature", "properties": { "Name": "North Dakota Heritage Center & State Museum", "State": "North Dakota", "Type": "TA" }, "geometry": { "type": "Point", "coordinates": [ -100.7788113, 46.819224 ] } },
{ "type": "Feature", "properties": { "Name": "Chief Looking's Village", "State": "North Dakota", "Type": "TA" }, "geometry": { "type": "Point", "coordinates": [ -100.8297726, 46.8303801 ] } },
{ "type": "Feature", "properties": { "Name": "Salem Sue", "State": "North Dakota", "Type": "TA" }, "geometry": { "type": "Point", "coordinates": [ -101.4262908, 46.8527929 ] } },
{ "type": "Feature", "properties": { "Name": "White Horse Hill National Game Preserve", "State": "North Dakota", "Type": "TA" }, "geometry": { "type": "Point", "coordinates": [ -98.9787578, 47.9857654 ] } },
{ "type": "Feature", "properties": { "Name": "Red River Zoo", "State": "North Dakota", "Type": "TA" }, "geometry": { "type": "Point", "coordinates": [ -96.8547528, 46.8448037 ] } },
{ "type": "Feature", "properties": { "Name": "Lewis and Clark Interpretive Center", "State": "North Dakota", "Type": "TA" }, "geometry": { "type": "Point", "coordinates": [ -101.041687, 47.301202 ] } },
{ "type": "Feature", "properties": { "Name": "Cedar Point", "State": "Ohio", "Type": "TA" }, "geometry": { "type": "Point", "coordinates": [ -82.6835206, 41.482207 ] } },
{ "type": "Feature", "properties": { "Name": "Columbus Zoo and Aquarium", "State": "Ohio", "Type": "TA" }, "geometry": { "type": "Point", "coordinates": [ -83.1179609, 40.1561609 ] } },
{ "type": "Feature", "properties": { "Name": "Ohio Caverns - Open All Year", "State": "Ohio", "Type": "TA" }, "geometry": { "type": "Point", "coordinates": [ -83.6966636, 40.2375609 ] } },
{ "type": "Feature", "properties": { "Name": "Highest point in Ohio", "State": "Ohio", "Type": "TA" }, "geometry": { "type": "Point", "coordinates": [ -83.720104, 40.370261 ] } },
{ "type": "Feature", "properties": { "Name": "National Museum of the US Air Force", "State": "Ohio", "Type": "TA" }, "geometry": { "type": "Point", "coordinates": [ -84.1093818, 39.7807961 ] } },
{ "type": "Feature", "properties": { "Name": "Loveland Castle Museum", "State": "Ohio", "Type": "TA" }, "geometry": { "type": "Point", "coordinates": [ -84.2659789, 39.2835347 ] } },
{ "type": "Feature", "properties": { "Name": "Kings Island", "State": "Ohio", "Type": "TA" }, "geometry": { "type": "Point", "coordinates": [ -84.2691423, 39.3451798 ] } },
{ "type": "Feature", "properties": { "Name": "Cuyahoga Valley National Park", "State": "Ohio", "Type": "TA" }, "geometry": { "type": "Point", "coordinates": [ -81.567812, 41.2808248 ] } },
{ "type": "Feature", "properties": { "Name": "Olentangy Caverns", "State": "Ohio", "Type": "TA" }, "geometry": { "type": "Point", "coordinates": [ -83.0627956, 40.1922063 ] } },
{ "type": "Feature", "properties": { "Name": "Big Muskie Bucket", "State": "Ohio", "Type": "TA" }, "geometry": { "type": "Point", "coordinates": [ -81.7312624, 39.699275 ] } },
{ "type": "Feature", "properties": { "Name": "Zoombezi Bay", "State": "Ohio", "Type": "TA" }, "geometry": { "type": "Point", "coordinates": [ -83.119104, 40.153597 ] } },
{ "type": "Feature", "properties": { "Name": "Ash Cave", "State": "Ohio", "Type": "TA" }, "geometry": { "type": "Point", "coordinates": [ -82.5443682, 39.3996064 ] } },
{ "type": "Feature", "properties": { "Name": "Historic Roscoe Village", "State": "Ohio", "Type": "TA" }, "geometry": { "type": "Point", "coordinates": [ -81.8760228, 40.2797938 ] } },
{ "type": "Feature", "properties": { "Name": "Franklin Park Conservatory and Botanical Gardens", "State": "Ohio", "Type": "TA" }, "geometry": { "type": "Point", "coordinates": [ -82.954770599999989, 39.9654489 ] } },
{ "type": "Feature", "properties": { "Name": "Huron Lighthouse", "State": "Ohio", "Type": "TA" }, "geometry": { "type": "Point", "coordinates": [ -82.5438076, 41.4046218 ] } },
{ "type": "Feature", "properties": { "Name": "Castle Noel", "State": "Ohio", "Type": "TA" }, "geometry": { "type": "Point", "coordinates": [ -81.8638571, 41.137002 ] } },
{ "type": "Feature", "properties": { "Name": "Topiary Park", "State": "Ohio", "Type": "TA" }, "geometry": { "type": "Point", "coordinates": [ -82.9875742, 39.9611004 ] } },
{ "type": "Feature", "properties": { "Name": "The Temple Of Tolerance", "State": "Ohio", "Type": "TA" }, "geometry": { "type": "Point", "coordinates": [ -84.1839108, 40.5686523 ] } },
{ "type": "Feature", "properties": { "Name": "LEGOLAND Discovery Center Columbus", "State": "Ohio", "Type": "TA" }, "geometry": { "type": "Point", "coordinates": [ -82.9158451, 40.051287599999988 ] } },
{ "type": "Feature", "properties": { "Name": "Hocking Hills Canopy Tours", "State": "Ohio", "Type": "TA" }, "geometry": { "type": "Point", "coordinates": [ -82.5193744, 39.5785145 ] } },
{ "type": "Feature", "properties": { "Name": "Blue Whale of Catoosa", "State": "Oklahoma", "Type": "TA" }, "geometry": { "type": "Point", "coordinates": [ -95.7329257, 36.1937732 ] } },
{ "type": "Feature", "properties": { "Name": "National Cowboy & Western Heritage Museum", "State": "Oklahoma", "Type": "TA" }, "geometry": { "type": "Point", "coordinates": [ -97.4831286, 35.5356997 ] } },
{ "type": "Feature", "properties": { "Name": "Oklahoma City Zoo", "State": "Oklahoma", "Type": "TA" }, "geometry": { "type": "Point", "coordinates": [ -97.4724932, 35.5238895 ] } },
{ "type": "Feature", "properties": { "Name": "Science Museum Oklahoma", "State": "Oklahoma", "Type": "TA" }, "geometry": { "type": "Point", "coordinates": [ -97.4754913, 35.5237553 ] } },
{ "type": "Feature", "properties": { "Name": "Oklahoma City National Memorial & Museum", "State": "Oklahoma", "Type": "TA" }, "geometry": { "type": "Point", "coordinates": [ -97.5170593, 35.4731496 ] } },
{ "type": "Feature", "properties": { "Name": "Turner Falls Park", "State": "Oklahoma", "Type": "TA" }, "geometry": { "type": "Point", "coordinates": [ -97.1445475, 34.4330933 ] } },
{ "type": "Feature", "properties": { "Name": "Salt Plains State Park", "State": "Oklahoma", "Type": "TA" }, "geometry": { "type": "Point", "coordinates": [ -98.1329308, 36.7429599 ] } },
{ "type": "Feature", "properties": { "Name": "Centennial Land Run Monument", "State": "Oklahoma", "Type": "TA" }, "geometry": { "type": "Point", "coordinates": [ -97.5051775, 35.4611333 ] } },
{ "type": "Feature", "properties": { "Name": "Martin Park Nature Center", "State": "Oklahoma", "Type": "TA" }, "geometry": { "type": "Point", "coordinates": [ -97.609632499999989, 35.6075225 ] } },
{ "type": "Feature", "properties": { "Name": "Beavers Bend State Park and Nature Center", "State": "Oklahoma", "Type": "TA" }, "geometry": { "type": "Point", "coordinates": [ -94.6803052, 34.1326751 ] } },
{ "type": "Feature", "properties": { "Name": "Center of the Universe", "State": "Oklahoma", "Type": "TA" }, "geometry": { "type": "Point", "coordinates": [ -95.991536599999989, 36.1568986 ] } },
{ "type": "Feature", "properties": { "Name": "Ed Galloway's Totem Pole Park", "State": "Oklahoma", "Type": "TA" }, "geometry": { "type": "Point", "coordinates": [ -95.4485043, 36.4375244 ] } },
{ "type": "Feature", "properties": { "Name": "Museum of Osteology", "State": "Oklahoma", "Type": "TA" }, "geometry": { "type": "Point", "coordinates": [ -97.4418414, 35.3648349 ] } },
{ "type": "Feature", "properties": { "Name": "Wheeler Ferris Wheel at Wheeler District", "State": "Oklahoma", "Type": "TA" }, "geometry": { "type": "Point", "coordinates": [ -97.5319819, 35.4517348 ] } },
{ "type": "Feature", "properties": { "Name": "Oklahoma City Museum of Art", "State": "Oklahoma", "Type": "TA" }, "geometry": { "type": "Point", "coordinates": [ -97.5205029, 35.4695638 ] } },
{ "type": "Feature", "properties": { "Name": "Discovery Cove Nature Center", "State": "Oklahoma", "Type": "TA" }, "geometry": { "type": "Point", "coordinates": [ -97.250194, 35.2097365 ] } },
{ "type": "Feature", "properties": { "Name": "Stockyards City Main Street", "State": "Oklahoma", "Type": "TA" }, "geometry": { "type": "Point", "coordinates": [ -97.5566911, 35.4532302 ] } },
{ "type": "Feature", "properties": { "Name": "Bricktown Water Taxi", "State": "Oklahoma", "Type": "TA" }, "geometry": { "type": "Point", "coordinates": [ -97.5092946, 35.4652226 ] } },
{ "type": "Feature", "properties": { "Name": "Crystal Bridge Tropical Conservatory", "State": "Oklahoma", "Type": "TA" }, "geometry": { "type": "Point", "coordinates": [ -97.517968599999989, 35.4650745 ] } },
{ "type": "Feature", "properties": { "Name": "Chickasaw National Recreation Area", "State": "Oklahoma", "Type": "TA" }, "geometry": { "type": "Point", "coordinates": [ -97.0066515, 34.4611597 ] } },
{ "type": "Feature", "properties": { "Name": "Smith Rock State Park", "State": "Oregon", "Type": "TA" }, "geometry": { "type": "Point", "coordinates": [ -121.1405814, 44.3682459 ] } },
{ "type": "Feature", "properties": { "Name": "Haystack Rock", "State": "Oregon", "Type": "TA" }, "geometry": { "type": "Point", "coordinates": [ -123.968248, 45.8844844 ] } },
{ "type": "Feature", "properties": { "Name": "Thor's Well", "State": "Oregon", "Type": "TA" }, "geometry": { "type": "Point", "coordinates": [ -124.1135082, 44.2784083 ] } },
{ "type": "Feature", "properties": { "Name": "Sea Lion Caves", "State": "Oregon", "Type": "TA" }, "geometry": { "type": "Point", "coordinates": [ -124.1266911, 44.121779 ] } },
{ "type": "Feature", "properties": { "Name": "John Day Fossil Beds National Monument", "State": "Oregon", "Type": "TA" }, "geometry": { "type": "Point", "coordinates": [ -120.2390749, 44.6345682 ] } },
{ "type": "Feature", "properties": { "Name": "The Oregon Vortex", "State": "Oregon", "Type": "TA" }, "geometry": { "type": "Point", "coordinates": [ -123.084617, 42.4932554 ] } },
{ "type": "Feature", "properties": { "Name": "Bridal Veil Falls", "State": "Oregon", "Type": "TA" }, "geometry": { "type": "Point", "coordinates": [ -122.1801902, 45.5544878 ] } },
{ "type": "Feature", "properties": { "Name": "Newberry National Volcanic Monument - Deschutes NF", "State": "Oregon", "Type": "TA" }, "geometry": { "type": "Point", "coordinates": [ -121.3568281, 43.9097198 ] } },
{ "type": "Feature", "properties": { "Name": "Prehistoric Gardens", "State": "Oregon", "Type": "TA" }, "geometry": { "type": "Point", "coordinates": [ -124.3929161, 42.6121232 ] } },
{ "type": "Feature", "properties": { "Name": "Crater Lake National Park", "State": "Oregon", "Type": "TA" }, "geometry": { "type": "Point", "coordinates": [ -122.1279394, 42.9294762 ] } },
{ "type": "Feature", "properties": { "Name": "Pittock Mansion", "State": "Oregon", "Type": "TA" }, "geometry": { "type": "Point", "coordinates": [ -122.7162689, 45.5252061 ] } },
{ "type": "Feature", "properties": { "Name": "Willamette National Forest", "State": "Oregon", "Type": "TA" }, "geometry": { "type": "Point", "coordinates": [ -122.1757283, 44.1053899 ] } },
{ "type": "Feature", "properties": { "Name": "Toketee Falls", "State": "Oregon", "Type": "TA" }, "geometry": { "type": "Point", "coordinates": [ -122.4337112, 43.2633418 ] } },
{ "type": "Feature", "properties": { "Name": "Columbia River Gorge National Scenic Area", "State": "Oregon", "Type": "TA" }, "geometry": { "type": "Point", "coordinates": [ -121.7524723, 45.7087498 ] } },
{ "type": "Feature", "properties": { "Name": "Multnomah Falls", "State": "Oregon", "Type": "TA" }, "geometry": { "type": "Point", "coordinates": [ -122.1174536, 45.5774878 ] } },
{ "type": "Feature", "properties": { "Name": "OMSI", "State": "Oregon", "Type": "TA" }, "geometry": { "type": "Point", "coordinates": [ -122.6660349, 45.5084426 ] } },
{ "type": "Feature", "properties": { "Name": "Oregon Dunes National Recreation Area Siuslaw National Forest", "State": "Oregon", "Type": "TA" }, "geometry": { "type": "Point", "coordinates": [ -124.1059618, 43.7035323 ] } },
{ "type": "Feature", "properties": { "Name": "International Rose Test Garden", "State": "Oregon", "Type": "TA" }, "geometry": { "type": "Point", "coordinates": [ -122.7052687, 45.5189524 ] } },
{ "type": "Feature", "properties": { "Name": "End of the Oregon Trail Interpretive Center", "State": "Oregon", "Type": "TA" }, "geometry": { "type": "Point", "coordinates": [ -122.5943702, 45.3652026 ] } },
{ "type": "Feature", "properties": { "Name": "Dee Wright Observatory", "State": "Oregon", "Type": "TA" }, "geometry": { "type": "Point", "coordinates": [ -121.8012333, 44.26055 ] } },
{ "type": "Feature", "properties": { "Name": "Penn's Cave & Wildlife Park", "State": "Pennsylvania", "Type": "TA" }, "geometry": { "type": "Point", "coordinates": [ -77.6116568, 40.8825498 ] } },
{ "type": "Feature", "properties": { "Name": "Independence National Historical Park", "State": "Pennsylvania", "Type": "TA" }, "geometry": { "type": "Point", "coordinates": [ -75.1497319, 39.9495312 ] } },
{ "type": "Feature", "properties": { "Name": "Presque Isle State Park", "State": "Pennsylvania", "Type": "TA" }, "geometry": { "type": "Point", "coordinates": [ -80.1149411, 42.1585823 ] } },
{ "type": "Feature", "properties": { "Name": "Valley Forge National Historical Park", "State": "Pennsylvania", "Type": "TA" }, "geometry": { "type": "Point", "coordinates": [ -75.4461131, 40.0997055 ] } },
{ "type": "Feature", "properties": { "Name": "National Christmas Center Family Attraction & Museum", "State": "Pennsylvania", "Type": "TA" }, "geometry": { "type": "Point", "coordinates": [ -76.671546, 40.179957 ] } },
{ "type": "Feature", "properties": { "Name": "Fallingwater", "State": "Pennsylvania", "Type": "TA" }, "geometry": { "type": "Point", "coordinates": [ -79.4678413, 39.9062551 ] } },
{ "type": "Feature", "properties": { "Name": "Eisenhower National Historic Site", "State": "Pennsylvania", "Type": "TA" }, "geometry": { "type": "Point", "coordinates": [ -77.2632705, 39.7938662 ] } },
{ "type": "Feature", "properties": { "Name": "Cherry Springs State Park", "State": "Pennsylvania", "Type": "TA" }, "geometry": { "type": "Point", "coordinates": [ -77.8234031, 41.6632215 ] } },
{ "type": "Feature", "properties": { "Name": "Crystal Cave", "State": "Pennsylvania", "Type": "TA" }, "geometry": { "type": "Point", "coordinates": [ -75.8425005, 40.5259177 ] } },
{ "type": "Feature", "properties": { "Name": "Liberty Bell", "State": "Pennsylvania", "Type": "TA" }, "geometry": { "type": "Point", "coordinates": [ -75.1502821, 39.9496103 ] } },
{ "type": "Feature", "properties": { "Name": "Dutch Wonderland", "State": "Pennsylvania", "Type": "TA" }, "geometry": { "type": "Point", "coordinates": [ -76.2172828, 40.0269312 ] } },
{ "type": "Feature", "properties": { "Name": "The State Museum of Pennsylvania", "State": "Pennsylvania", "Type": "TA" }, "geometry": { "type": "Point", "coordinates": [ -76.8857592, 40.2657133 ] } },
{ "type": "Feature", "properties": { "Name": "Lincoln Caverns", "State": "Pennsylvania", "Type": "TA" }, "geometry": { "type": "Point", "coordinates": [ -78.0713182, 40.5075297 ] } },
{ "type": "Feature", "properties": { "Name": "Eastern State Penitentiary", "State": "Pennsylvania", "Type": "TA" }, "geometry": { "type": "Point", "coordinates": [ -75.1726648, 39.9683364 ] } },
{ "type": "Feature", "properties": { "Name": "Lost River Caverns", "State": "Pennsylvania", "Type": "TA" }, "geometry": { "type": "Point", "coordinates": [ -75.331234, 40.5809364 ] } },
{ "type": "Feature", "properties": { "Name": "Rocky Statue", "State": "Pennsylvania", "Type": "TA" }, "geometry": { "type": "Point", "coordinates": [ -75.1793441, 39.965138200000013 ] } },
{ "type": "Feature", "properties": { "Name": "Hersheypark", "State": "Pennsylvania", "Type": "TA" }, "geometry": { "type": "Point", "coordinates": [ -76.6547469, 40.2887809 ] } },
{ "type": "Feature", "properties": { "Name": "PA Grand Canyon", "State": "Pennsylvania", "Type": "TA" }, "geometry": { "type": "Point", "coordinates": [ -77.4545866, 41.6962584 ] } },
{ "type": "Feature", "properties": { "Name": "Laurel Caverns", "State": "Pennsylvania", "Type": "TA" }, "geometry": { "type": "Point", "coordinates": [ -79.7115228, 39.7996611 ] } },
{ "type": "Feature", "properties": { "Name": "Wolf Sanctuary of PA", "State": "Pennsylvania", "Type": "TA" }, "geometry": { "type": "Point", "coordinates": [ -76.3314293, 40.2179783 ] } },
{ "type": "Feature", "properties": { "Name": "Ocean Drive Historic District", "State": "Rhode Island", "Type": "TA" }, "geometry": { "type": "Point", "coordinates": [ -71.3350686, 41.4546445 ] } },
{ "type": "Feature", "properties": { "Name": "Colt State Park", "State": "Rhode Island", "Type": "TA" }, "geometry": { "type": "Point", "coordinates": [ -71.2985319, 41.6769145 ] } },
{ "type": "Feature", "properties": { "Name": "Fort Adams State Park", "State": "Rhode Island", "Type": "TA" }, "geometry": { "type": "Point", "coordinates": [ -71.3358244, 41.4790898 ] } },
{ "type": "Feature", "properties": { "Name": "Point Judith Lighthouse", "State": "Rhode Island", "Type": "TA" }, "geometry": { "type": "Point", "coordinates": [ -71.48142, 41.3610247 ] } },
{ "type": "Feature", "properties": { "Name": "The Breakers", "State": "Rhode Island", "Type": "TA" }, "geometry": { "type": "Point", "coordinates": [ -71.2982384, 41.4698401 ] } },
{ "type": "Feature", "properties": { "Name": "Roger Williams National Memorial", "State": "Rhode Island", "Type": "TA" }, "geometry": { "type": "Point", "coordinates": [ -71.4107403, 41.8313318 ] } },
{ "type": "Feature", "properties": { "Name": "Carousel Village", "State": "Rhode Island", "Type": "TA" }, "geometry": { "type": "Point", "coordinates": [ -71.4146284, 41.7832397 ] } },
{ "type": "Feature", "properties": { "Name": "Chateau-sur-Mer", "State": "Rhode Island", "Type": "TA" }, "geometry": { "type": "Point", "coordinates": [ -71.3053664, 41.4712654 ] } },
{ "type": "Feature", "properties": { "Name": "Newport Tower", "State": "Rhode Island", "Type": "TA" }, "geometry": { "type": "Point", "coordinates": [ -71.3098936, 41.4858053 ] } },
{ "type": "Feature", "properties": { "Name": "Touro Synagogue National Historic Site", "State": "Rhode Island", "Type": "TA" }, "geometry": { "type": "Point", "coordinates": [ -71.3120078, 41.489386499999988 ] } },
{ "type": "Feature", "properties": { "Name": "Secret Garden Tour In Newport RI", "State": "Rhode Island", "Type": "TA" }, "geometry": { "type": "Point", "coordinates": [ -71.320686, 41.490962 ] } },
{ "type": "Feature", "properties": { "Name": "Rosecliff", "State": "Rhode Island", "Type": "TA" }, "geometry": { "type": "Point", "coordinates": [ -71.3046633, 41.4652088 ] } },
{ "type": "Feature", "properties": { "Name": "Brenton Point State Park", "State": "Rhode Island", "Type": "TA" }, "geometry": { "type": "Point", "coordinates": [ -71.3543688, 41.4526568 ] } },
{ "type": "Feature", "properties": { "Name": "Providence Children's Museum", "State": "Rhode Island", "Type": "TA" }, "geometry": { "type": "Point", "coordinates": [ -71.4094029, 41.8165168 ] } },
{ "type": "Feature", "properties": { "Name": "The John Brown House Museum", "State": "Rhode Island", "Type": "TA" }, "geometry": { "type": "Point", "coordinates": [ -71.4033602, 41.8230258 ] } },
{ "type": "Feature", "properties": { "Name": "Newport Tower Museum", "State": "Rhode Island", "Type": "TA" }, "geometry": { "type": "Point", "coordinates": [ -71.309276, 41.485975 ] } },
{ "type": "Feature", "properties": { "Name": "Bowen's Wharf", "State": "Rhode Island", "Type": "TA" }, "geometry": { "type": "Point", "coordinates": [ -71.3162242, 41.4866483 ] } },
{ "type": "Feature", "properties": { "Name": "Goddard Memorial State Park", "State": "Rhode Island", "Type": "TA" }, "geometry": { "type": "Point", "coordinates": [ -71.4358095, 41.6573476 ] } },
{ "type": "Feature", "properties": { "Name": "Rocky Point State Park", "State": "Rhode Island", "Type": "TA" }, "geometry": { "type": "Point", "coordinates": [ -71.366956, 41.690501 ] } },
{ "type": "Feature", "properties": { "Name": "Prudence Island Lighthouse", "State": "Rhode Island", "Type": "TA" }, "geometry": { "type": "Point", "coordinates": [ -71.3035611, 41.6058958 ] } },
{ "type": "Feature", "properties": { "Name": "Hollywood Wax Museum", "State": "South Carolina", "Type": "TA" }, "geometry": { "type": "Point", "coordinates": [ -78.8912573, 33.7171419 ] } },
{ "type": "Feature", "properties": { "Name": "The Battery", "State": "South Carolina", "Type": "TA" }, "geometry": { "type": "Point", "coordinates": [ -79.9287947, 32.7702216 ] } },
{ "type": "Feature", "properties": { "Name": "Harbour Town Lighthouse", "State": "South Carolina", "Type": "TA" }, "geometry": { "type": "Point", "coordinates": [ -80.8126366, 32.1386205 ] } },
{ "type": "Feature", "properties": { "Name": "Coligny Beach Park", "State": "South Carolina", "Type": "TA" }, "geometry": { "type": "Point", "coordinates": [ -80.7510617, 32.141562 ] } },
{ "type": "Feature", "properties": { "Name": "Rainbow Row", "State": "South Carolina", "Type": "TA" }, "geometry": { "type": "Point", "coordinates": [ -79.9272939, 32.7753587 ] } },
{ "type": "Feature", "properties": { "Name": "Brookgreen Gardens", "State": "South Carolina", "Type": "TA" }, "geometry": { "type": "Point", "coordinates": [ -79.0893215, 33.5161411 ] } },
{ "type": "Feature", "properties": { "Name": "Broadway at the Beach", "State": "South Carolina", "Type": "TA" }, "geometry": { "type": "Point", "coordinates": [ -78.8819491, 33.7156173 ] } },
{ "type": "Feature", "properties": { "Name": "South Carolina State Museum", "State": "South Carolina", "Type": "TA" }, "geometry": { "type": "Point", "coordinates": [ -81.0480824, 33.9990559 ] } },
{ "type": "Feature", "properties": { "Name": "Joe Riley Waterfront Park", "State": "South Carolina", "Type": "TA" }, "geometry": { "type": "Point", "coordinates": [ -79.9255465, 32.778966 ] } },
{ "type": "Feature", "properties": { "Name": "Congaree National Park", "State": "South Carolina", "Type": "TA" }, "geometry": { "type": "Point", "coordinates": [ -80.7490486, 33.7918719 ] } },
{ "type": "Feature", "properties": { "Name": "Coastal Discovery Museum", "State": "South Carolina", "Type": "TA" }, "geometry": { "type": "Point", "coordinates": [ -80.7439096, 32.2114866 ] } },
{ "type": "Feature", "properties": { "Name": "McLeod Plantation Historic Site", "State": "South Carolina", "Type": "TA" }, "geometry": { "type": "Point", "coordinates": [ -79.9730658, 32.7631484 ] } },
{ "type": "Feature", "properties": { "Name": "Ninety Six National Historic Site", "State": "South Carolina", "Type": "TA" }, "geometry": { "type": "Point", "coordinates": [ -82.0230608, 34.1467007 ] } },
{ "type": "Feature", "properties": { "Name": "Magnolia Plantation and Gardens", "State": "South Carolina", "Type": "TA" }, "geometry": { "type": "Point", "coordinates": [ -80.0833639, 32.8744765 ] } },
{ "type": "Feature", "properties": { "Name": "Fort Sumter National Monument", "State": "South Carolina", "Type": "TA" }, "geometry": { "type": "Point", "coordinates": [ -79.8746925, 32.7523476 ] } },
{ "type": "Feature", "properties": { "Name": "Charleston Pirate Tours", "State": "South Carolina", "Type": "TA" }, "geometry": { "type": "Point", "coordinates": [ -79.9300671, 32.7794474 ] } },
{ "type": "Feature", "properties": { "Name": "Huntington Beach State Park", "State": "South Carolina", "Type": "TA" }, "geometry": { "type": "Point", "coordinates": [ -79.0609293, 33.5145618 ] } },
{ "type": "Feature", "properties": { "Name": "Drayton Hall", "State": "South Carolina", "Type": "TA" }, "geometry": { "type": "Point", "coordinates": [ -80.0763195, 32.8708995 ] } },
{ "type": "Feature", "properties": { "Name": "Middleton Place", "State": "South Carolina", "Type": "TA" }, "geometry": { "type": "Point", "coordinates": [ -80.137769, 32.8999341 ] } },
{ "type": "Feature", "properties": { "Name": "Museum of York County", "State": "South Carolina", "Type": "TA" }, "geometry": { "type": "Point", "coordinates": [ -81.0628805, 35.0100979 ] } },
{ "type": "Feature", "properties": { "Name": "The World's Only Corn Palace", "State": "South Dakota", "Type": "TA" }, "geometry": { "type": "Point", "coordinates": [ -98.0253647, 43.714836299999988 ] } },
{ "type": "Feature", "properties": { "Name": "Mount Rushmore National Memorial", "State": "South Dakota", "Type": "TA" }, "geometry": { "type": "Point", "coordinates": [ -103.4537746, 43.8803357 ] } },
{ "type": "Feature", "properties": { "Name": "Wind Cave National Park", "State": "South Dakota", "Type": "TA" }, "geometry": { "type": "Point", "coordinates": [ -103.4415644, 43.5724388 ] } },
{ "type": "Feature", "properties": { "Name": "Custer State Park", "State": "South Dakota", "Type": "TA" }, "geometry": { "type": "Point", "coordinates": [ -103.4133335, 43.7325177 ] } },
{ "type": "Feature", "properties": { "Name": "The Mammoth Site", "State": "South Dakota", "Type": "TA" }, "geometry": { "type": "Point", "coordinates": [ -103.4835398, 43.4246244 ] } },
{ "type": "Feature", "properties": { "Name": "Ingalls Homestead", "State": "South Dakota", "Type": "TA" }, "geometry": { "type": "Point", "coordinates": [ -97.5411796, 44.367233 ] } },
{ "type": "Feature", "properties": { "Name": "Pinnacles Overlook", "State": "South Dakota", "Type": "TA" }, "geometry": { "type": "Point", "coordinates": [ -102.2347076, 43.8691828 ] } },
{ "type": "Feature", "properties": { "Name": "Panorama Point", "State": "South Dakota", "Type": "TA" }, "geometry": { "type": "Point", "coordinates": [ -102.0606689, 43.7954941 ] } },
{ "type": "Feature", "properties": { "Name": "Rush Mountain Adventure Park", "State": "South Dakota", "Type": "TA" }, "geometry": { "type": "Point", "coordinates": [ -103.33107, 43.87433 ] } },
{ "type": "Feature", "properties": { "Name": "Butterfly House & Aquarium", "State": "South Dakota", "Type": "TA" }, "geometry": { "type": "Point", "coordinates": [ -96.7624867, 43.5065168 ] } },
{ "type": "Feature", "properties": { "Name": "Reptile Gardens", "State": "South Dakota", "Type": "TA" }, "geometry": { "type": "Point", "coordinates": [ -103.2720165, 43.9909702 ] } },
{ "type": "Feature", "properties": { "Name": "Yellow Mounds Overlook", "State": "South Dakota", "Type": "TA" }, "geometry": { "type": "Point", "coordinates": [ -102.1945583, 43.8433722 ] } },
{ "type": "Feature", "properties": { "Name": "Good Earth State Park Visitor Center", "State": "South Dakota", "Type": "TA" }, "geometry": { "type": "Point", "coordinates": [ -96.5944224, 43.4770412 ] } },
{ "type": "Feature", "properties": { "Name": "Big Badlands Overlook", "State": "South Dakota", "Type": "TA" }, "geometry": { "type": "Point", "coordinates": [ -101.9002379, 43.7847448 ] } },
{ "type": "Feature", "properties": { "Name": "Homestead Overlook", "State": "South Dakota", "Type": "TA" }, "geometry": { "type": "Point", "coordinates": [ -102.1757444, 43.8218333 ] } },
{ "type": "Feature", "properties": { "Name": "Dinosaur Park", "State": "South Dakota", "Type": "TA" }, "geometry": { "type": "Point", "coordinates": [ -103.2458739, 44.078061899999987 ] } },
{ "type": "Feature", "properties": { "Name": "Devil's Gulch Park", "State": "South Dakota", "Type": "TA" }, "geometry": { "type": "Point", "coordinates": [ -96.4950682, 43.7234574 ] } },
{ "type": "Feature", "properties": { "Name": "Falls Park", "State": "South Dakota", "Type": "TA" }, "geometry": { "type": "Point", "coordinates": [ -96.7219767, 43.5569667 ] } },
{ "type": "Feature", "properties": { "Name": "Fear Asylum Haunted House", "State": "South Dakota", "Type": "TA" }, "geometry": { "type": "Point", "coordinates": [ -96.8060839, 44.3118396 ] } },
{ "type": "Feature", "properties": { "Name": "Great Plains Zoo & Delbridge Museum of Natural History", "State": "South Dakota", "Type": "TA" }, "geometry": { "type": "Point", "coordinates": [ -96.7623989, 43.5391966 ] } },
{ "type": "Feature", "properties": { "Name": "TITANIC Museum Attraction", "State": "Tennessee", "Type": "TA" }, "geometry": { "type": "Point", "coordinates": [ -83.5789351, 35.82055 ] } },
{ "type": "Feature", "properties": { "Name": "Dollywood", "State": "Tennessee", "Type": "TA" }, "geometry": { "type": "Point", "coordinates": [ -83.5311862, 35.7951026 ] } },
{ "type": "Feature", "properties": { "Name": "Tennessee Aquarium", "State": "Tennessee", "Type": "TA" }, "geometry": { "type": "Point", "coordinates": [ -85.3110646, 35.0558229 ] } },
{ "type": "Feature", "properties": { "Name": "Graceland", "State": "Tennessee", "Type": "TA" }, "geometry": { "type": "Point", "coordinates": [ -90.026049300000011, 35.0476912 ] } },
{ "type": "Feature", "properties": { "Name": "Andrew Jackson’s Hermitage", "State": "Tennessee", "Type": "TA" }, "geometry": { "type": "Point", "coordinates": [ -86.615309700000012, 36.2137573 ] } },
{ "type": "Feature", "properties": { "Name": "Fort Nashborough", "State": "Tennessee", "Type": "TA" }, "geometry": { "type": "Point", "coordinates": [ -86.7754305, 36.1642682 ] } },
{ "type": "Feature", "properties": { "Name": "Old Stone Fort State Archaeological Park", "State": "Tennessee", "Type": "TA" }, "geometry": { "type": "Point", "coordinates": [ -86.1026944, 35.4862509 ] } },
{ "type": "Feature", "properties": { "Name": "Geographic Center of Tennessee", "State": "Tennessee", "Type": "TA" }, "geometry": { "type": "Point", "coordinates": [ -86.3620193, 35.8597295 ] } },
{ "type": "Feature", "properties": { "Name": "Loretta Lynn's Ranch - Event Venue, Campgrounds, Tourism Destination", "State": "Tennessee", "Type": "TA" }, "geometry": { "type": "Point", "coordinates": [ -87.7713291, 35.9766981 ] } },
{ "type": "Feature", "properties": { "Name": "Cumberland Caverns", "State": "Tennessee", "Type": "TA" }, "geometry": { "type": "Point", "coordinates": [ -85.6829269, 35.6661943 ] } },
{ "type": "Feature", "properties": { "Name": "Bicentennial Capitol Mall State Park", "State": "Tennessee", "Type": "TA" }, "geometry": { "type": "Point", "coordinates": [ -86.787589, 36.1708875 ] } },
{ "type": "Feature", "properties": { "Name": "Millennium Manor Castle", "State": "Tennessee", "Type": "TA" }, "geometry": { "type": "Point", "coordinates": [ -83.9652469, 35.7801965 ] } },
{ "type": "Feature", "properties": { "Name": "Nashville Zoo at Grassmere", "State": "Tennessee", "Type": "TA" }, "geometry": { "type": "Point", "coordinates": [ -86.742096, 36.089705 ] } },
{ "type": "Feature", "properties": { "Name": "Lookout Mountain Incline Railway", "State": "Tennessee", "Type": "TA" }, "geometry": { "type": "Point", "coordinates": [ -85.3285898, 35.0095379 ] } },
{ "type": "Feature", "properties": { "Name": "Adventure Science Center", "State": "Tennessee", "Type": "TA" }, "geometry": { "type": "Point", "coordinates": [ -86.77548, 36.1466152 ] } },
{ "type": "Feature", "properties": { "Name": "Patsy Cline Museum", "State": "Tennessee", "Type": "TA" }, "geometry": { "type": "Point", "coordinates": [ -86.7760305, 36.1609042 ] } },
{ "type": "Feature", "properties": { "Name": "The Chattanooga Zoo at Warner Park", "State": "Tennessee", "Type": "TA" }, "geometry": { "type": "Point", "coordinates": [ -85.2820989, 35.0426324 ] } },
{ "type": "Feature", "properties": { "Name": "Gateway Island", "State": "Tennessee", "Type": "TA" }, "geometry": { "type": "Point", "coordinates": [ -86.419353, 35.8642187 ] } },
{ "type": "Feature", "properties": { "Name": "Riverfront Park", "State": "Tennessee", "Type": "TA" }, "geometry": { "type": "Point", "coordinates": [ -86.7780018, 36.1693932 ] } },
{ "type": "Feature", "properties": { "Name": "Hannah's Maze of Mirrors", "State": "Tennessee", "Type": "TA" }, "geometry": { "type": "Point", "coordinates": [ -83.576445, 35.8155767 ] } },
{ "type": "Feature", "properties": { "Name": "Downtown Aquarium", "State": "Texas", "Type": "TA" }, "geometry": { "type": "Point", "coordinates": [ -95.367379200000016, 29.7642703 ] } },
{ "type": "Feature", "properties": { "Name": "Waterwall", "State": "Texas", "Type": "TA" }, "geometry": { "type": "Point", "coordinates": [ -95.461315399999989, 29.7357404 ] } },
{ "type": "Feature", "properties": { "Name": "Natural Bridge Caverns", "State": "Texas", "Type": "TA" }, "geometry": { "type": "Point", "coordinates": [ -98.3427276, 29.6924095 ] } },
{ "type": "Feature", "properties": { "Name": "Space Center Houston", "State": "Texas", "Type": "TA" }, "geometry": { "type": "Point", "coordinates": [ -95.0981044, 29.551832 ] } },
{ "type": "Feature", "properties": { "Name": "The Museum of Fine Arts, Houston", "State": "Texas", "Type": "TA" }, "geometry": { "type": "Point", "coordinates": [ -95.3905328, 29.7256229 ] } },
{ "type": "Feature", "properties": { "Name": "San Antonio River Walk", "State": "Texas", "Type": "TA" }, "geometry": { "type": "Point", "coordinates": [ -98.4846834, 29.4229109 ] } },
{ "type": "Feature", "properties": { "Name": "San Jacinto Battleground State Historic Site", "State": "Texas", "Type": "TA" }, "geometry": { "type": "Point", "coordinates": [ -95.0796515, 29.7473935 ] } },
{ "type": "Feature", "properties": { "Name": "Buffalo Bayou Park Cistern", "State": "Texas", "Type": "TA" }, "geometry": { "type": "Point", "coordinates": [ -95.3759835, 29.7623918 ] } },
{ "type": "Feature", "properties": { "Name": "Gerald D. Hines Waterwall Park", "State": "Texas", "Type": "TA" }, "geometry": { "type": "Point", "coordinates": [ -95.461322, 29.736342 ] } },
{ "type": "Feature", "properties": { "Name": "The Alamo", "State": "Texas", "Type": "TA" }, "geometry": { "type": "Point", "coordinates": [ -98.4861419, 29.4259671 ] } },
{ "type": "Feature", "properties": { "Name": "Buffalo Bayou Park", "State": "Texas", "Type": "TA" }, "geometry": { "type": "Point", "coordinates": [ -95.3974177, 29.7620713 ] } },
{ "type": "Feature", "properties": { "Name": "Hermann Park", "State": "Texas", "Type": "TA" }, "geometry": { "type": "Point", "coordinates": [ -95.3899524, 29.7135284 ] } },
{ "type": "Feature", "properties": { "Name": "The Garden at New Territory", "State": "Texas", "Type": "TA" }, "geometry": { "type": "Point", "coordinates": [ -95.6766305, 29.585709 ] } },
{ "type": "Feature", "properties": { "Name": "Houston Museum of Natural Science", "State": "Texas", "Type": "TA" }, "geometry": { "type": "Point", "coordinates": [ -95.3895625, 29.7220625 ] } },
{ "type": "Feature", "properties": { "Name": "The Dallas World Aquarium", "State": "Texas", "Type": "TA" }, "geometry": { "type": "Point", "coordinates": [ -96.805358, 32.7834737 ] } },
{ "type": "Feature", "properties": { "Name": "Hermann Square", "State": "Texas", "Type": "TA" }, "geometry": { "type": "Point", "coordinates": [ -95.3686111, 29.7597222 ] } },
{ "type": "Feature", "properties": { "Name": "Rainforest Pyramid", "State": "Texas", "Type": "TA" }, "geometry": { "type": "Point", "coordinates": [ -94.852722, 29.275493 ] } },
{ "type": "Feature", "properties": { "Name": "American Statesmanship Park", "State": "Texas", "Type": "TA" }, "geometry": { "type": "Point", "coordinates": [ -95.3669258, 29.7713213 ] } },
{ "type": "Feature", "properties": { "Name": "Houston Arboretum & Nature Center", "State": "Texas", "Type": "TA" }, "geometry": { "type": "Point", "coordinates": [ -95.4520705, 29.7652236 ] } },
{ "type": "Feature", "properties": { "Name": "Houston Museum of Natural Science at Sugar Land", "State": "Texas", "Type": "TA" }, "geometry": { "type": "Point", "coordinates": [ -95.6497095, 29.5925686 ] } },
{ "type": "Feature", "properties": { "Name": "Grand Staircase-Escalante National Monument", "State": "Utah", "Type": "TA" }, "geometry": { "type": "Point", "coordinates": [ -111.5943485, 37.4608765 ] } },
{ "type": "Feature", "properties": { "Name": "Mesa Arch", "State": "Utah", "Type": "TA" }, "geometry": { "type": "Point", "coordinates": [ -109.8635557, 38.3879982 ] } },
{ "type": "Feature", "properties": { "Name": "Coral Pink Sand Dunes State Park", "State": "Utah", "Type": "TA" }, "geometry": { "type": "Point", "coordinates": [ -112.7144334, 37.037738399999988 ] } },
{ "type": "Feature", "properties": { "Name": "Dead Horse Point State Park", "State": "Utah", "Type": "TA" }, "geometry": { "type": "Point", "coordinates": [ -109.7294241, 38.5054267 ] } },
{ "type": "Feature", "properties": { "Name": "Hole 'N' The Rock", "State": "Utah", "Type": "TA" }, "geometry": { "type": "Point", "coordinates": [ -109.4542852, 38.390809399999988 ] } },
{ "type": "Feature", "properties": { "Name": "Natural History Museum of Utah", "State": "Utah", "Type": "TA" }, "geometry": { "type": "Point", "coordinates": [ -111.8226881, 40.7641297 ] } },
{ "type": "Feature", "properties": { "Name": "Capitol Reef National Park", "State": "Utah", "Type": "TA" }, "geometry": { "type": "Point", "coordinates": [ -111.1354983, 38.0877312 ] } },
{ "type": "Feature", "properties": { "Name": "Green River Overlook", "State": "Utah", "Type": "TA" }, "geometry": { "type": "Point", "coordinates": [ -109.8883333, 38.3783333 ] } },
{ "type": "Feature", "properties": { "Name": "Fremont Indian State Park and Museum", "State": "Utah", "Type": "TA" }, "geometry": { "type": "Point", "coordinates": [ -112.3349416, 38.5775683 ] } },
{ "type": "Feature", "properties": { "Name": "Bryce Canyon National Park", "State": "Utah", "Type": "TA" }, "geometry": { "type": "Point", "coordinates": [ -112.1870895, 37.5930377 ] } },
{ "type": "Feature", "properties": { "Name": "Sand Dune Arch", "State": "Utah", "Type": "TA" }, "geometry": { "type": "Point", "coordinates": [ -109.5810746, 38.7642884 ] } },
{ "type": "Feature", "properties": { "Name": "Arches National Park", "State": "Utah", "Type": "TA" }, "geometry": { "type": "Point", "coordinates": [ -109.5925139, 38.733081 ] } },
{ "type": "Feature", "properties": { "Name": "Canyonlands National Park", "State": "Utah", "Type": "TA" }, "geometry": { "type": "Point", "coordinates": [ -109.9025345, 38.2135733 ] } },
{ "type": "Feature", "properties": { "Name": "Balanced Rock", "State": "Utah", "Type": "TA" }, "geometry": { "type": "Point", "coordinates": [ -109.5656592, 38.7017134 ] } },
{ "type": "Feature", "properties": { "Name": "Thanksgiving Point", "State": "Utah", "Type": "TA" }, "geometry": { "type": "Point", "coordinates": [ -111.8870962, 40.4258579 ] } },
{ "type": "Feature", "properties": { "Name": "Sunset Point", "State": "Utah", "Type": "TA" }, "geometry": { "type": "Point", "coordinates": [ -111.2943234, 38.2969825 ] } },
{ "type": "Feature", "properties": { "Name": "Courthouse Towers", "State": "Utah", "Type": "TA" }, "geometry": { "type": "Point", "coordinates": [ -109.5984652, 38.6363945 ] } },
{ "type": "Feature", "properties": { "Name": "Buck Canyon Overlook", "State": "Utah", "Type": "TA" }, "geometry": { "type": "Point", "coordinates": [ -109.860225, 38.3459639 ] } },
{ "type": "Feature", "properties": { "Name": "Toquerville falls", "State": "Utah", "Type": "TA" }, "geometry": { "type": "Point", "coordinates": [ -113.2469033, 37.2986936 ] } },
{ "type": "Feature", "properties": { "Name": "Horseshoe Canyon", "State": "Utah", "Type": "TA" }, "geometry": { "type": "Point", "coordinates": [ -110.2057805, 38.4483153 ] } },
{ "type": "Feature", "properties": { "Name": "Marsh-Billings-Rockefeller National Historical Park", "State": "Vermont", "Type": "TA" }, "geometry": { "type": "Point", "coordinates": [ -72.5178484, 43.6311474 ] } },
{ "type": "Feature", "properties": { "Name": "Billings Farm & Museum", "State": "Vermont", "Type": "TA" }, "geometry": { "type": "Point", "coordinates": [ -72.5157636, 43.6316007 ] } },
{ "type": "Feature", "properties": { "Name": "VINS Nature Center", "State": "Vermont", "Type": "TA" }, "geometry": { "type": "Point", "coordinates": [ -72.4110348, 43.6418236 ] } },
{ "type": "Feature", "properties": { "Name": "Fairbanks Museum & Planetarium", "State": "Vermont", "Type": "TA" }, "geometry": { "type": "Point", "coordinates": [ -72.0198389, 44.4200317 ] } },
{ "type": "Feature", "properties": { "Name": "Montshire Museum of Science", "State": "Vermont", "Type": "TA" }, "geometry": { "type": "Point", "coordinates": [ -72.30502, 43.7003064 ] } },
{ "type": "Feature", "properties": { "Name": "Largest Zipper in North America", "State": "Vermont", "Type": "TA" }, "geometry": { "type": "Point", "coordinates": [ -72.5034917, 44.1991476 ] } },
{ "type": "Feature", "properties": { "Name": "Warren Falls", "State": "Vermont", "Type": "TA" }, "geometry": { "type": "Point", "coordinates": [ -72.8643208, 44.0954381 ] } },
{ "type": "Feature", "properties": { "Name": "Vermont Teddy Bear Factory", "State": "Vermont", "Type": "TA" }, "geometry": { "type": "Point", "coordinates": [ -73.23055, 44.36152 ] } },
{ "type": "Feature", "properties": { "Name": "ECHO, Leahy Center for Lake Champlain", "State": "Vermont", "Type": "TA" }, "geometry": { "type": "Point", "coordinates": [ -73.2208675, 44.4766747 ] } },
{ "type": "Feature", "properties": { "Name": "Vermontasaurus", "State": "Vermont", "Type": "TA" }, "geometry": { "type": "Point", "coordinates": [ -72.2495896, 43.885871900000012 ] } },
{ "type": "Feature", "properties": { "Name": "Great Vermont Corn Maze", "State": "Vermont", "Type": "TA" }, "geometry": { "type": "Point", "coordinates": [ -72.0932593, 44.4992775 ] } },
{ "type": "Feature", "properties": { "Name": "Big Falls State Park", "State": "Vermont", "Type": "TA" }, "geometry": { "type": "Point", "coordinates": [ -72.3864866, 44.9727393 ] } },
{ "type": "Feature", "properties": { "Name": "Main Street Museum", "State": "Vermont", "Type": "TA" }, "geometry": { "type": "Point", "coordinates": [ -72.3190065, 43.6499582 ] } },
{ "type": "Feature", "properties": { "Name": "Overlook Park", "State": "Vermont", "Type": "TA" }, "geometry": { "type": "Point", "coordinates": [ -73.1934225, 44.4317444 ] } },
{ "type": "Feature", "properties": { "Name": "Green Mountain National Forest", "State": "Vermont", "Type": "TA" }, "geometry": { "type": "Point", "coordinates": [ -72.9996256, 43.0547606 ] } },
{ "type": "Feature", "properties": { "Name": "Creamery Covered Bridge", "State": "Vermont", "Type": "TA" }, "geometry": { "type": "Point", "coordinates": [ -72.5859774, 42.849776299999988 ] } },
{ "type": "Feature", "properties": { "Name": "Mt. Philo State Park", "State": "Vermont", "Type": "TA" }, "geometry": { "type": "Point", "coordinates": [ -73.2147449, 44.2780592 ] } },
{ "type": "Feature", "properties": { "Name": "Gold Brook Covered Bridge", "State": "Vermont", "Type": "TA" }, "geometry": { "type": "Point", "coordinates": [ -72.6798747, 44.440385 ] } },
{ "type": "Feature", "properties": { "Name": "Old Red Mill", "State": "Vermont", "Type": "TA" }, "geometry": { "type": "Point", "coordinates": [ -72.9997301, 44.504647299999988 ] } },
{ "type": "Feature", "properties": { "Name": "Sand Bar State Park", "State": "Vermont", "Type": "TA" }, "geometry": { "type": "Point", "coordinates": [ -73.2412866, 44.6265863 ] } },
{ "type": "Feature", "properties": { "Name": "Luray Caverns", "State": "Virginia", "Type": "TA" }, "geometry": { "type": "Point", "coordinates": [ -78.483783, 38.6640991 ] } },
{ "type": "Feature", "properties": { "Name": "Grand Caverns", "State": "Virginia", "Type": "TA" }, "geometry": { "type": "Point", "coordinates": [ -78.8346264, 38.2590439 ] } },
{ "type": "Feature", "properties": { "Name": "George Washington's Mount Vernon", "State": "Virginia", "Type": "TA" }, "geometry": { "type": "Point", "coordinates": [ -77.0861753, 38.707982 ] } },
{ "type": "Feature", "properties": { "Name": "Virginia Museum of Fine Arts", "State": "Virginia", "Type": "TA" }, "geometry": { "type": "Point", "coordinates": [ -77.4747907, 37.5560356 ] } },
{ "type": "Feature", "properties": { "Name": "Virginia Safari Park", "State": "Virginia", "Type": "TA" }, "geometry": { "type": "Point", "coordinates": [ -79.5168426, 37.6731761 ] } },
{ "type": "Feature", "properties": { "Name": "Caverns at Natural Bridge", "State": "Virginia", "Type": "TA" }, "geometry": { "type": "Point", "coordinates": [ -79.5416378, 37.6357611 ] } },
{ "type": "Feature", "properties": { "Name": "Colonial Williamsburg Visitor Center", "State": "Virginia", "Type": "TA" }, "geometry": { "type": "Point", "coordinates": [ -76.6986089, 37.2790873 ] } },
{ "type": "Feature", "properties": { "Name": "Natural Bridge State Park", "State": "Virginia", "Type": "TA" }, "geometry": { "type": "Point", "coordinates": [ -79.5437481, 37.6286389 ] } },
{ "type": "Feature", "properties": { "Name": "Shenandoah Caverns", "State": "Virginia", "Type": "TA" }, "geometry": { "type": "Point", "coordinates": [ -78.669285, 38.715512 ] } },
{ "type": "Feature", "properties": { "Name": "Virginia Aquarium & Marine Science Center", "State": "Virginia", "Type": "TA" }, "geometry": { "type": "Point", "coordinates": [ -75.9833596, 36.821012 ] } },
{ "type": "Feature", "properties": { "Name": "Dinosaur Kingdom II", "State": "Virginia", "Type": "TA" }, "geometry": { "type": "Point", "coordinates": [ -79.5325616, 37.6446802 ] } },
{ "type": "Feature", "properties": { "Name": "Henricus Historical Park", "State": "Virginia", "Type": "TA" }, "geometry": { "type": "Point", "coordinates": [ -77.362356800000015, 37.3739728 ] } },
{ "type": "Feature", "properties": { "Name": "Maggie L Walker National Historic Site", "State": "Virginia", "Type": "TA" }, "geometry": { "type": "Point", "coordinates": [ -77.4374764, 37.5478107 ] } },
{ "type": "Feature", "properties": { "Name": "Busch Gardens Williamsburg", "State": "Virginia", "Type": "TA" }, "geometry": { "type": "Point", "coordinates": [ -76.6458975, 37.236405 ] } },
{ "type": "Feature", "properties": { "Name": "Maymont", "State": "Virginia", "Type": "TA" }, "geometry": { "type": "Point", "coordinates": [ -77.474571, 37.5341784 ] } },
{ "type": "Feature", "properties": { "Name": "The Rotunda", "State": "Virginia", "Type": "TA" }, "geometry": { "type": "Point", "coordinates": [ -78.503426, 38.0355514 ] } },
{ "type": "Feature", "properties": { "Name": "20-Minute Cliff Overlook", "State": "Virginia", "Type": "TA" }, "geometry": { "type": "Point", "coordinates": [ -79.053779800000015, 37.8975722 ] } },
{ "type": "Feature", "properties": { "Name": "Frontier Culture Museum", "State": "Virginia", "Type": "TA" }, "geometry": { "type": "Point", "coordinates": [ -79.0501114, 38.1249916 ] } },
{ "type": "Feature", "properties": { "Name": "Berkeley Plantation", "State": "Virginia", "Type": "TA" }, "geometry": { "type": "Point", "coordinates": [ -77.180489, 37.318477 ] } },
{ "type": "Feature", "properties": { "Name": "Virginia State Capitol", "State": "Virginia", "Type": "TA" }, "geometry": { "type": "Point", "coordinates": [ -77.4337395, 37.5386926 ] } },
{ "type": "Feature", "properties": { "Name": "Washington-on-the-Brazos State Historic Site", "State": "Washington", "Type": "TA" }, "geometry": { "type": "Point", "coordinates": [ -96.1551108, 30.3259109 ] } },
{ "type": "Feature", "properties": { "Name": "Star of the Republic Museum", "State": "Washington", "Type": "TA" }, "geometry": { "type": "Point", "coordinates": [ -96.1536435, 30.3239167 ] } },
{ "type": "Feature", "properties": { "Name": "Buffalo Bayou Park Cistern", "State": "Washington", "Type": "TA" }, "geometry": { "type": "Point", "coordinates": [ -95.3759835, 29.7623918 ] } },
{ "type": "Feature", "properties": { "Name": "Houston Arboretum & Nature Center", "State": "Washington", "Type": "TA" }, "geometry": { "type": "Point", "coordinates": [ -95.4520705, 29.7652236 ] } },
{ "type": "Feature", "properties": { "Name": "Washington Monument", "State": "Washington", "Type": "TA" }, "geometry": { "type": "Point", "coordinates": [ -77.0352791, 38.8894838 ] } },
{ "type": "Feature", "properties": { "Name": "Art Car Museum", "State": "Washington", "Type": "TA" }, "geometry": { "type": "Point", "coordinates": [ -95.3970538, 29.7719909 ] } },
{ "type": "Feature", "properties": { "Name": "American Statesmanship Park", "State": "Washington", "Type": "TA" }, "geometry": { "type": "Point", "coordinates": [ -95.3669258, 29.7713213 ] } },
{ "type": "Feature", "properties": { "Name": "United States Botanic Garden", "State": "Washington", "Type": "TA" }, "geometry": { "type": "Point", "coordinates": [ -77.0128833, 38.8881451 ] } },
{ "type": "Feature", "properties": { "Name": "International Spy Museum", "State": "Washington", "Type": "TA" }, "geometry": { "type": "Point", "coordinates": [ -77.0255748, 38.8841419 ] } },
{ "type": "Feature", "properties": { "Name": "Bayou Bend Collection and Gardens", "State": "Washington", "Type": "TA" }, "geometry": { "type": "Point", "coordinates": [ -95.4216927, 29.7606593 ] } },
{ "type": "Feature", "properties": { "Name": "Chihuly Bridge of Glass", "State": "Washington", "Type": "TA" }, "geometry": { "type": "Point", "coordinates": [ -122.4345767, 47.2456664 ] } },
{ "type": "Feature", "properties": { "Name": "National Mall", "State": "Washington", "Type": "TA" }, "geometry": { "type": "Point", "coordinates": [ -77.0363934, 38.8875144 ] } },
{ "type": "Feature", "properties": { "Name": "The Water Works in Buffalo Bayou Park", "State": "Washington", "Type": "TA" }, "geometry": { "type": "Point", "coordinates": [ -95.3761396, 29.7622119 ] } },
{ "type": "Feature", "properties": { "Name": "Beer Can House", "State": "Washington", "Type": "TA" }, "geometry": { "type": "Point", "coordinates": [ -95.4190941, 29.7637643 ] } },
{ "type": "Feature", "properties": { "Name": "Washington Park Arboretum", "State": "Washington", "Type": "TA" }, "geometry": { "type": "Point", "coordinates": [ -122.2958146, 47.6364162 ] } },
{ "type": "Feature", "properties": { "Name": "Ballard (Hiram M. Chittenden) Locks", "State": "Washington", "Type": "TA" }, "geometry": { "type": "Point", "coordinates": [ -122.3971838, 47.665504299999988 ] } },
{ "type": "Feature", "properties": { "Name": "Pier 55", "State": "Washington", "Type": "TA" }, "geometry": { "type": "Point", "coordinates": [ -122.339716, 47.604747 ] } },
{ "type": "Feature", "properties": { "Name": "Seattle Aquarium", "State": "Washington", "Type": "TA" }, "geometry": { "type": "Point", "coordinates": [ -122.3429558, 47.6074002 ] } },
{ "type": "Feature", "properties": { "Name": "Pioneer Memorial Obelisk", "State": "Washington", "Type": "TA" }, "geometry": { "type": "Point", "coordinates": [ -95.3910522, 29.7186296 ] } },
{ "type": "Feature", "properties": { "Name": "Olympic National Park", "State": "Washington", "Type": "TA" }, "geometry": { "type": "Point", "coordinates": [ -123.6043524, 47.8021067 ] } },
{ "type": "Feature", "properties": { "Name": "Seneca Caverns", "State": "West Virginia", "Type": "TA" }, "geometry": { "type": "Point", "coordinates": [ -79.3885442, 38.7630945 ] } },
{ "type": "Feature", "properties": { "Name": "West Virginia Penitentiary", "State": "West Virginia", "Type": "TA" }, "geometry": { "type": "Point", "coordinates": [ -80.7428902, 39.9167972 ] } },
{ "type": "Feature", "properties": { "Name": "Cathedral Falls", "State": "West Virginia", "Type": "TA" }, "geometry": { "type": "Point", "coordinates": [ -81.1787815, 38.1544918 ] } },
{ "type": "Feature", "properties": { "Name": "Lost World Caverns", "State": "West Virginia", "Type": "TA" }, "geometry": { "type": "Point", "coordinates": [ -80.446842, 37.832652 ] } },
{ "type": "Feature", "properties": { "Name": "Grave Creek Mound Historical Site", "State": "West Virginia", "Type": "TA" }, "geometry": { "type": "Point", "coordinates": [ -80.7443618, 39.9168689 ] } },
{ "type": "Feature", "properties": { "Name": "Hawks Nest State Park", "State": "West Virginia", "Type": "TA" }, "geometry": { "type": "Point", "coordinates": [ -81.1178022, 38.1214139 ] } },
{ "type": "Feature", "properties": { "Name": "Monongahela National Forest", "State": "West Virginia", "Type": "TA" }, "geometry": { "type": "Point", "coordinates": [ -79.9020901, 38.5356539 ] } },
{ "type": "Feature", "properties": { "Name": "Berkeley Springs State Park", "State": "West Virginia", "Type": "TA" }, "geometry": { "type": "Point", "coordinates": [ -78.2282304, 39.6268388 ] } },
{ "type": "Feature", "properties": { "Name": "Blennerhassett Island Historical State Park", "State": "West Virginia", "Type": "TA" }, "geometry": { "type": "Point", "coordinates": [ -81.632156900000012, 39.2721586 ] } },
{ "type": "Feature", "properties": { "Name": "Blackwater Falls State Park", "State": "West Virginia", "Type": "TA" }, "geometry": { "type": "Point", "coordinates": [ -79.4843412, 39.112571 ] } },
{ "type": "Feature", "properties": { "Name": "Harpers Ferry National Historical Park", "State": "West Virginia", "Type": "TA" }, "geometry": { "type": "Point", "coordinates": [ -77.7581415, 39.3178043 ] } },
{ "type": "Feature", "properties": { "Name": "Douglas Falls", "State": "West Virginia", "Type": "TA" }, "geometry": { "type": "Point", "coordinates": [ -79.5193085, 39.1237536 ] } },
{ "type": "Feature", "properties": { "Name": "Beartown State Park", "State": "West Virginia", "Type": "TA" }, "geometry": { "type": "Point", "coordinates": [ -80.2790587, 38.0561719 ] } },
{ "type": "Feature", "properties": { "Name": "Pricketts Fort State Park", "State": "West Virginia", "Type": "TA" }, "geometry": { "type": "Point", "coordinates": [ -80.0947953, 39.517135499999988 ] } },
{ "type": "Feature", "properties": { "Name": "Mothman Museum", "State": "West Virginia", "Type": "TA" }, "geometry": { "type": "Point", "coordinates": [ -82.1385314, 38.8427256 ] } },
{ "type": "Feature", "properties": { "Name": "Mystery Hole", "State": "West Virginia", "Type": "TA" }, "geometry": { "type": "Point", "coordinates": [ -81.1411483, 38.1240167 ] } },
{ "type": "Feature", "properties": { "Name": "Grandview National Park", "State": "West Virginia", "Type": "TA" }, "geometry": { "type": "Point", "coordinates": [ -81.064781700000012, 37.8315539 ] } },
{ "type": "Feature", "properties": { "Name": "Babcock State Park", "State": "West Virginia", "Type": "TA" }, "geometry": { "type": "Point", "coordinates": [ -80.9829528, 37.9931248 ] } },
{ "type": "Feature", "properties": { "Name": "Twin Falls Resort State Park", "State": "West Virginia", "Type": "TA" }, "geometry": { "type": "Point", "coordinates": [ -81.4397242, 37.636682 ] } },
{ "type": "Feature", "properties": { "Name": "Carnifex Ferry Battlefield State Park", "State": "West Virginia", "Type": "TA" }, "geometry": { "type": "Point", "coordinates": [ -80.9390014, 38.2130178 ] } },
{ "type": "Feature", "properties": { "Name": "Cave of the Mounds", "State": "Wisconsin", "Type": "TA" }, "geometry": { "type": "Point", "coordinates": [ -89.8140528, 43.0170287 ] } },
{ "type": "Feature", "properties": { "Name": "The House on the Rock", "State": "Wisconsin", "Type": "TA" }, "geometry": { "type": "Point", "coordinates": [ -90.1353025, 43.0994316 ] } },
{ "type": "Feature", "properties": { "Name": "Rock In the House", "State": "Wisconsin", "Type": "TA" }, "geometry": { "type": "Point", "coordinates": [ -91.7243357, 44.1355657 ] } },
{ "type": "Feature", "properties": { "Name": "MagiQuest", "State": "Wisconsin", "Type": "TA" }, "geometry": { "type": "Point", "coordinates": [ -89.779560600000011, 43.5726836 ] } },
{ "type": "Feature", "properties": { "Name": "Rudolph Grotto Gardens", "State": "Wisconsin", "Type": "TA" }, "geometry": { "type": "Point", "coordinates": [ -89.8020198, 44.4994412 ] } },
{ "type": "Feature", "properties": { "Name": "Circus World Museum", "State": "Wisconsin", "Type": "TA" }, "geometry": { "type": "Point", "coordinates": [ -89.7350983, 43.4668454 ] } },
{ "type": "Feature", "properties": { "Name": "North Point Lighthouse", "State": "Wisconsin", "Type": "TA" }, "geometry": { "type": "Point", "coordinates": [ -87.8714219, 43.065672199999987 ] } },
{ "type": "Feature", "properties": { "Name": "Taliesin Preservation: Frank Lloyd Wright Visitor Center", "State": "Wisconsin", "Type": "TA" }, "geometry": { "type": "Point", "coordinates": [ -90.0595914, 43.1439294 ] } },
{ "type": "Feature", "properties": { "Name": "Top Secret Attraction", "State": "Wisconsin", "Type": "TA" }, "geometry": { "type": "Point", "coordinates": [ -89.7843797, 43.6189581 ] } },
{ "type": "Feature", "properties": { "Name": "Pewit's Nest", "State": "Wisconsin", "Type": "TA" }, "geometry": { "type": "Point", "coordinates": [ -89.788071699999989, 43.4499508 ] } },
{ "type": "Feature", "properties": { "Name": "Mirror Lake State Park", "State": "Wisconsin", "Type": "TA" }, "geometry": { "type": "Point", "coordinates": [ -89.8182872, 43.5657947 ] } },
{ "type": "Feature", "properties": { "Name": "Tommy Bartlett Exploratory", "State": "Wisconsin", "Type": "TA" }, "geometry": { "type": "Point", "coordinates": [ -89.7931298, 43.5954565 ] } },
{ "type": "Feature", "properties": { "Name": "High Cliff State Park", "State": "Wisconsin", "Type": "TA" }, "geometry": { "type": "Point", "coordinates": [ -88.2910966, 44.166962 ] } },
{ "type": "Feature", "properties": { "Name": "Dells of the Wisconsin River State Natural Area", "State": "Wisconsin", "Type": "TA" }, "geometry": { "type": "Point", "coordinates": [ -89.7864008, 43.6558256 ] } },
{ "type": "Feature", "properties": { "Name": "Copper Falls State Park", "State": "Wisconsin", "Type": "TA" }, "geometry": { "type": "Point", "coordinates": [ -90.6439684, 46.3761555 ] } },
{ "type": "Feature", "properties": { "Name": "Pink Elephant", "State": "Wisconsin", "Type": "TA" }, "geometry": { "type": "Point", "coordinates": [ -89.3804855, 43.2501791 ] } },
{ "type": "Feature", "properties": { "Name": "Madison Children's Museum", "State": "Wisconsin", "Type": "TA" }, "geometry": { "type": "Point", "coordinates": [ -89.3843946, 43.0769396 ] } },
{ "type": "Feature", "properties": { "Name": "Taliesin", "State": "Wisconsin", "Type": "TA" }, "geometry": { "type": "Point", "coordinates": [ -90.0704443, 43.1410554 ] } },
{ "type": "Feature", "properties": { "Name": "Asylum Point Lighthouse", "State": "Wisconsin", "Type": "TA" }, "geometry": { "type": "Point", "coordinates": [ -88.5148226, 44.0624459 ] } },
{ "type": "Feature", "properties": { "Name": "Wizard Quest", "State": "Wisconsin", "Type": "TA" }, "geometry": { "type": "Point", "coordinates": [ -89.7713952, 43.6274887 ] } },
{ "type": "Feature", "properties": { "Name": "Devils Tower National Monument", "State": "Wyoming", "Type": "TA" }, "geometry": { "type": "Point", "coordinates": [ -104.7146168, 44.5902098 ] } },
{ "type": "Feature", "properties": { "Name": "Fort Laramie National Historic Site", "State": "Wyoming", "Type": "TA" }, "geometry": { "type": "Point", "coordinates": [ -104.5465669, 42.2029097 ] } },
{ "type": "Feature", "properties": { "Name": "Old Faithful", "State": "Wyoming", "Type": "TA" }, "geometry": { "type": "Point", "coordinates": [ -110.8281377, 44.4604788 ] } },
{ "type": "Feature", "properties": { "Name": "Bridger-Teton National Forest", "State": "Wyoming", "Type": "TA" }, "geometry": { "type": "Point", "coordinates": [ -110.242659, 43.9260159 ] } },
{ "type": "Feature", "properties": { "Name": "Tower Fall", "State": "Wyoming", "Type": "TA" }, "geometry": { "type": "Point", "coordinates": [ -110.3871663, 44.8938189 ] } },
{ "type": "Feature", "properties": { "Name": "Swinging Bridge", "State": "Wyoming", "Type": "TA" }, "geometry": { "type": "Point", "coordinates": [ -108.1965941, 43.655065 ] } },
{ "type": "Feature", "properties": { "Name": "Old Trail Town", "State": "Wyoming", "Type": "TA" }, "geometry": { "type": "Point", "coordinates": [ -109.1043634, 44.5153984 ] } },
{ "type": "Feature", "properties": { "Name": "National Historic Trails Interpretive Center", "State": "Wyoming", "Type": "TA" }, "geometry": { "type": "Point", "coordinates": [ -106.3371458, 42.8665958 ] } },
{ "type": "Feature", "properties": { "Name": "Fossil Butte National Monument", "State": "Wyoming", "Type": "TA" }, "geometry": { "type": "Point", "coordinates": [ -110.7624632, 41.8563383 ] } },
{ "type": "Feature", "properties": { "Name": "Jenny Lake Overlook", "State": "Wyoming", "Type": "TA" }, "geometry": { "type": "Point", "coordinates": [ -110.7174865, 43.7678375 ] } },
{ "type": "Feature", "properties": { "Name": "Glacier View Turnout", "State": "Wyoming", "Type": "TA" }, "geometry": { "type": "Point", "coordinates": [ -110.672676, 43.6908586 ] } },
{ "type": "Feature", "properties": { "Name": "Ayres Natural Bridge Park", "State": "Wyoming", "Type": "TA" }, "geometry": { "type": "Point", "coordinates": [ -105.6115636, 42.7342437 ] } },
{ "type": "Feature", "properties": { "Name": "Cement Ridge Lookout", "State": "Wyoming", "Type": "TA" }, "geometry": { "type": "Point", "coordinates": [ -104.0754417, 44.3547641 ] } },
{ "type": "Feature", "properties": { "Name": "Independence Rock State Historic Site", "State": "Wyoming", "Type": "TA" }, "geometry": { "type": "Point", "coordinates": [ -107.1318463, 42.4935382 ] } },
{ "type": "Feature", "properties": { "Name": "Wyoming Dinosaur Center", "State": "Wyoming", "Type": "TA" }, "geometry": { "type": "Point", "coordinates": [ -108.2004941, 43.6432728 ] } },
{ "type": "Feature", "properties": { "Name": "Grand Encampment Museum", "State": "Wyoming", "Type": "TA" }, "geometry": { "type": "Point", "coordinates": [ -106.7891211, 41.2039973 ] } },
{ "type": "Feature", "properties": { "Name": "Teton Point Turnout", "State": "Wyoming", "Type": "TA" }, "geometry": { "type": "Point", "coordinates": [ -110.6602145, 43.717968 ] } },
{ "type": "Feature", "properties": { "Name": "Mormon Row Historic District", "State": "Wyoming", "Type": "TA" }, "geometry": { "type": "Point", "coordinates": [ -110.6649422, 43.6606826 ] } },
{ "type": "Feature", "properties": { "Name": "Curt Gowdy State Park", "State": "Wyoming", "Type": "TA" }, "geometry": { "type": "Point", "coordinates": [ -105.2279971, 41.1694715 ] } },
{ "type": "Feature", "properties": { "Name": "Albright Visitor Center", "State": "Wyoming", "Type": "TA" }, "geometry": { "type": "Point", "coordinates": [ -110.6995216, 44.9764326 ] } }
]
}
